{"count":405,"items":[{"id":"5b143756e65d0c002c996a14","startTime":1528051541,"endTime":1528053908,"venueId":"4a4ea9c9f964a520e0ae1fe3","lat":34.032050606301716,"lng":-118.49562530245318,"venue":{"id":"4a4ea9c9f964a520e0ae1fe3","name":"R+D Kitchen","url":"https:\/\/foursquare.com\/v\/rd-kitchen\/4a4ea9c9f964a520e0ae1fe3"}},{"id":"5b143756e4c459002ca436d9","startTime":1528051541,"endTime":0,"venueId":"4a4ea9c9f964a520e0ae1fe3","lat":34.032050606301716,"lng":-118.49562530245318,"venue":{"id":"4a4ea9c9f964a520e0ae1fe3","name":"R+D Kitchen","url":"https:\/\/foursquare.com\/v\/rd-kitchen\/4a4ea9c9f964a520e0ae1fe3"}},{"id":"5b12deb85f68b9002cc162c5","startTime":1527963320,"endTime":1527966819,"venueId":"531168ef498ed0e38ca4c9f7","lat":34.02900699565149,"lng":-118.49858466226594,"venue":{"id":"531168ef498ed0e38ca4c9f7","name":"Art's Table","url":"https:\/\/foursquare.com\/v\/arts-table\/531168ef498ed0e38ca4c9f7"}},{"id":"5b12deb8e075500039a681eb","startTime":1527963320,"endTime":1527966819,"venueId":"531168ef498ed0e38ca4c9f7","lat":34.02900699565149,"lng":-118.49858466226594,"venue":{"id":"531168ef498ed0e38ca4c9f7","name":"Art's Table","url":"https:\/\/foursquare.com\/v\/arts-table\/531168ef498ed0e38ca4c9f7"}},{"id":"5b12c0084940bc002c514d8d","startTime":1527955314,"endTime":1527959352,"venueId":"50f4ae1be4b0afcceb376d42","lat":34.01722665732819,"lng":-118.49806056828321,"venue":{"id":"50f4ae1be4b0afcceb376d42","name":"SoulCycle Santa Monica","url":"https:\/\/foursquare.com\/v\/soulcycle-santa-monica\/50f4ae1be4b0afcceb376d42"}},{"id":"5b12bdfaacb00b002cf2737f","startTime":1527954716,"endTime":1527955314,"venueId":"50f4ae1be4b0afcceb376d42","lat":34.01699831774336,"lng":-118.49971904273632,"venue":{"id":"50f4ae1be4b0afcceb376d42","name":"SoulCycle Santa Monica","url":"https:\/\/foursquare.com\/v\/soulcycle-santa-monica\/50f4ae1be4b0afcceb376d42"}},{"id":"5b12bd823b4e00002cf4470e","startTime":1527954716,"endTime":1527959352,"venueId":"50f4ae1be4b0afcceb376d42","lat":34.01699831774336,"lng":-118.49971904273632,"venue":{"id":"50f4ae1be4b0afcceb376d42","name":"SoulCycle Santa Monica","url":"https:\/\/foursquare.com\/v\/soulcycle-santa-monica\/50f4ae1be4b0afcceb376d42"}},{"id":"5b11a5889411f2002c4ba67c","startTime":1527883092,"endTime":1527887150,"venueId":"549a5c29498e7529d1aae65d","lat":34.07129599914197,"lng":-118.40161646475677,"venue":{"id":"549a5c29498e7529d1aae65d","name":"Wally's Beverly Hills","url":"https:\/\/foursquare.com\/v\/wallys-beverly-hills\/549a5c29498e7529d1aae65d"}},{"id":"5b11a588e65d0c002c26684b","startTime":1527883092,"endTime":1527887655,"venueId":"549a5c29498e7529d1aae65d","lat":34.07129599914197,"lng":-118.40161646475677,"venue":{"id":"549a5c29498e7529d1aae65d","name":"Wally's Beverly Hills","url":"https:\/\/foursquare.com\/v\/wallys-beverly-hills\/549a5c29498e7529d1aae65d"}},{"id":"5b10a81b9411f2002c41d57f","startTime":1527818266,"endTime":1527821759,"venueId":"5ace3663f5e9d7488d79fbf7","lat":34.036908011357546,"lng":-118.47523335994013,"venue":{"id":"5ace3663f5e9d7488d79fbf7","name":"Erewhon Natural Foods Market","url":"https:\/\/foursquare.com\/v\/erewhon-natural-foods-market\/5ace3663f5e9d7488d79fbf7"}},{"id":"5b10a81bc824ae002cd0d2b2","startTime":1527818266,"endTime":1527821759,"venueId":"5ace3663f5e9d7488d79fbf7","lat":34.036908011357546,"lng":-118.47523335994013,"venue":{"id":"5ace3663f5e9d7488d79fbf7","name":"Erewhon Natural Foods Market","url":"https:\/\/foursquare.com\/v\/erewhon-natural-foods-market\/5ace3663f5e9d7488d79fbf7"}},{"id":"5b104d439e3b65003a9224fc","startTime":1527794908,"endTime":1527798151,"venueId":"4ea1e90b7ee52a35dcab82d6","lat":34.07505222591297,"lng":-118.39417736799615,"venue":{"id":"4ea1e90b7ee52a35dcab82d6","name":"The Larder at Maple Drive","url":"https:\/\/foursquare.com\/v\/the-larder-at-maple-drive\/4ea1e90b7ee52a35dcab82d6"}},{"id":"5b104d43ad910e002cf36ce5","startTime":1527794908,"endTime":1527798151,"venueId":"4ea1e90b7ee52a35dcab82d6","lat":34.07505222591297,"lng":-118.39417736799615,"venue":{"id":"4ea1e90b7ee52a35dcab82d6","name":"The Larder at Maple Drive","url":"https:\/\/foursquare.com\/v\/the-larder-at-maple-drive\/4ea1e90b7ee52a35dcab82d6"}},{"id":"5b0feffc872f7d002c4be6c7","startTime":1527770861,"endTime":1527774818,"venueId":"50f4ae1be4b0afcceb376d42","lat":34.01675714821021,"lng":-118.49938908649547,"venue":{"id":"50f4ae1be4b0afcceb376d42","name":"SoulCycle Santa Monica","url":"https:\/\/foursquare.com\/v\/soulcycle-santa-monica\/50f4ae1be4b0afcceb376d42"}},{"id":"5b0feffc4940bc002c7ebad0","startTime":1527770861,"endTime":1527774818,"venueId":"50f4ae1be4b0afcceb376d42","lat":34.01675714821021,"lng":-118.49938908649547,"venue":{"id":"50f4ae1be4b0afcceb376d42","name":"SoulCycle Santa Monica","url":"https:\/\/foursquare.com\/v\/soulcycle-santa-monica\/50f4ae1be4b0afcceb376d42"}},{"id":"5b0f07073b4e00002c6ac116","startTime":1527711394,"endTime":1527713396,"venueId":"4eb5da102c5b53141a87d186","lat":34.0670342529491,"lng":-118.39609362646236,"venue":{"id":"4eb5da102c5b53141a87d186","name":"Caulfield's","url":"https:\/\/foursquare.com\/v\/caulfields\/4eb5da102c5b53141a87d186"}},{"id":"5b0f07076e4650002cf3fa8d","startTime":1527711394,"endTime":1527713396,"venueId":"4eb5da102c5b53141a87d186","lat":34.0670342529491,"lng":-118.39609362646236,"venue":{"id":"4eb5da102c5b53141a87d186","name":"Caulfield's","url":"https:\/\/foursquare.com\/v\/caulfields\/4eb5da102c5b53141a87d186"}},{"id":"5b0f0479e55d8b002c90d227","startTime":1527710841,"endTime":1527711029,"venueId":"4b4650faf964a520651d26e3","lat":34.07173656234311,"lng":-118.39870686132676,"venue":{"id":"4b4650faf964a520651d26e3","name":"Paradigm Agency","url":"https:\/\/foursquare.com\/v\/paradigm-agency\/4b4650faf964a520651d26e3"}},{"id":"5b0f0479ad1789002cf0dfc3","startTime":1527710841,"endTime":1527711029,"venueId":"4b4650faf964a520651d26e3","lat":34.07173656234311,"lng":-118.39870686132676,"venue":{"id":"4b4650faf964a520651d26e3","name":"Paradigm Agency","url":"https:\/\/foursquare.com\/v\/paradigm-agency\/4b4650faf964a520651d26e3"}},{"id":"5b0eb0176e4650002c859e0a","startTime":1527689195,"endTime":1527689478,"venueId":"512cf0bbe4b054700a0da69a","lat":34.04062066034877,"lng":-118.47283255448812,"venue":{"id":"512cf0bbe4b054700a0da69a","name":"Bristol Farms Santa Monica","url":"https:\/\/foursquare.com\/v\/bristol-farms-santa-monica\/512cf0bbe4b054700a0da69a"}},{"id":"5b0eb0176336be002cb92543","startTime":1527689195,"endTime":1527689478,"venueId":"512cf0bbe4b054700a0da69a","lat":34.04062066034877,"lng":-118.47283255448812,"venue":{"id":"512cf0bbe4b054700a0da69a","name":"Bristol Farms Santa Monica","url":"https:\/\/foursquare.com\/v\/bristol-farms-santa-monica\/512cf0bbe4b054700a0da69a"}},{"id":"5b0dac9275dcb7002cf6fe17","startTime":1527622697,"endTime":1527625669,"venueId":"4acd13cef964a520c1ca20e3","lat":34.07352432799996,"lng":-118.39429147937196,"venue":{"id":"4acd13cef964a520c1ca20e3","name":"US Post Office","url":"https:\/\/foursquare.com\/v\/us-post-office\/4acd13cef964a520c1ca20e3"}},{"id":"5b0dac922b9844002ce9aec7","startTime":1527622697,"endTime":1527644731,"venueId":"4acd13cef964a520c1ca20e3","lat":34.07352432799996,"lng":-118.39429147937196,"venue":{"id":"4acd13cef964a520c1ca20e3","name":"US Post Office","url":"https:\/\/foursquare.com\/v\/us-post-office\/4acd13cef964a520c1ca20e3"}},{"id":"5b0c8b4dbcbf7a002c1808e9","startTime":1527548746,"endTime":1527549941,"venueId":"4a7488aaf964a5207bde1fe3","lat":34.02907154641789,"lng":-118.49943986959696,"venue":{"id":"4a7488aaf964a5207bde1fe3","name":"Caffe Luxxe","url":"https:\/\/foursquare.com\/v\/caffe-luxxe\/4a7488aaf964a5207bde1fe3"}},{"id":"5b0c8b4d8b98fd002c8560ad","startTime":1527548746,"endTime":1527549154,"venueId":"4a7488aaf964a5207bde1fe3","lat":34.02907154641789,"lng":-118.49943986959696,"venue":{"id":"4a7488aaf964a5207bde1fe3","name":"Caffe Luxxe","url":"https:\/\/foursquare.com\/v\/caffe-luxxe\/4a7488aaf964a5207bde1fe3"}},{"id":"5b0c6650780eee002c9dac2c","startTime":1527539279,"endTime":1527545447,"venueId":"4aad9d3bf964a520036120e3","lat":34.01447396313158,"lng":-118.49849360857311,"venue":{"id":"4aad9d3bf964a520036120e3","name":"Blue Plate Oysterette","url":"https:\/\/foursquare.com\/v\/blue-plate-oysterette\/4aad9d3bf964a520036120e3"}},{"id":"5b0c6650780eee002cfc1a06","startTime":1527539279,"endTime":1527545447,"venueId":"4aad9d3bf964a520036120e3","lat":34.01447396313158,"lng":-118.49849360857311,"venue":{"id":"4aad9d3bf964a520036120e3","name":"Blue Plate Oysterette","url":"https:\/\/foursquare.com\/v\/blue-plate-oysterette\/4aad9d3bf964a520036120e3"}},{"id":"5b0c4a91780eee002cdc74e0","startTime":1527532084,"endTime":1527536478,"venueId":"50f4ae1be4b0afcceb376d42","lat":34.01738383762948,"lng":-118.5002322175961,"venue":{"id":"50f4ae1be4b0afcceb376d42","name":"SoulCycle Santa Monica","url":"https:\/\/foursquare.com\/v\/soulcycle-santa-monica\/50f4ae1be4b0afcceb376d42"}},{"id":"5b0c4a90f15b51002ce7500e","startTime":1527532084,"endTime":1527547924,"venueId":"50f4ae1be4b0afcceb376d42","lat":34.01738383762948,"lng":-118.5002322175961,"venue":{"id":"50f4ae1be4b0afcceb376d42","name":"SoulCycle Santa Monica","url":"https:\/\/foursquare.com\/v\/soulcycle-santa-monica\/50f4ae1be4b0afcceb376d42"}},{"id":"5b0af9e4d4cc98002c9e2ef3","startTime":1527445987,"endTime":1527448270,"venueId":"4a4ea9c9f964a520e0ae1fe3","lat":34.03193637004187,"lng":-118.4958024236257,"venue":{"id":"4a4ea9c9f964a520e0ae1fe3","name":"R+D Kitchen","url":"https:\/\/foursquare.com\/v\/rd-kitchen\/4a4ea9c9f964a520e0ae1fe3"}},{"id":"5b0af9e4029a550039a38823","startTime":1527445987,"endTime":1527448270,"venueId":"4a4ea9c9f964a520e0ae1fe3","lat":34.03193637004187,"lng":-118.4958024236257,"venue":{"id":"4a4ea9c9f964a520e0ae1fe3","name":"R+D Kitchen","url":"https:\/\/foursquare.com\/v\/rd-kitchen\/4a4ea9c9f964a520e0ae1fe3"}},{"id":"5b0ac5f63b8307002cfb6323","startTime":1527432590,"endTime":1527436562,"venueId":"50f4ae1be4b0afcceb376d42","lat":34.01689765069853,"lng":-118.49866988028027,"venue":{"id":"50f4ae1be4b0afcceb376d42","name":"SoulCycle Santa Monica","url":"https:\/\/foursquare.com\/v\/soulcycle-santa-monica\/50f4ae1be4b0afcceb376d42"}},{"id":"5b0ac5f6f79faa002c3f7c71","startTime":1527432590,"endTime":1527436562,"venueId":"50f4ae1be4b0afcceb376d42","lat":34.01689765069853,"lng":-118.49866988028027,"venue":{"id":"50f4ae1be4b0afcceb376d42","name":"SoulCycle Santa Monica","url":"https:\/\/foursquare.com\/v\/soulcycle-santa-monica\/50f4ae1be4b0afcceb376d42"}},{"id":"5b099fcccf72a000382e4c3a","startTime":1527357387,"endTime":1527360751,"venueId":"531168ef498ed0e38ca4c9f7","lat":34.02905979362928,"lng":-118.49885247743528,"venue":{"id":"531168ef498ed0e38ca4c9f7","name":"Art's Table","url":"https:\/\/foursquare.com\/v\/arts-table\/531168ef498ed0e38ca4c9f7"}},{"id":"5b0983239f8a9f002c19cf28","startTime":1527350020,"endTime":1527354046,"venueId":"50f4ae1be4b0afcceb376d42","lat":34.01669928780933,"lng":-118.49947996150816,"venue":{"id":"50f4ae1be4b0afcceb376d42","name":"SoulCycle Santa Monica","url":"https:\/\/foursquare.com\/v\/soulcycle-santa-monica\/50f4ae1be4b0afcceb376d42"}},{"id":"5b09832366f3cd002c227a7a","startTime":1527350020,"endTime":1527354046,"venueId":"50f4ae1be4b0afcceb376d42","lat":34.01669928780933,"lng":-118.49947996150816,"venue":{"id":"50f4ae1be4b0afcceb376d42","name":"SoulCycle Santa Monica","url":"https:\/\/foursquare.com\/v\/soulcycle-santa-monica\/50f4ae1be4b0afcceb376d42"}},{"id":"5b0861caa42362002cef56eb","startTime":1527275972,"endTime":1527277964,"venueId":"4a7b19f0f964a52008ea1fe3","lat":34.02928630919207,"lng":-118.49868711988368,"venue":{"id":"4a7b19f0f964a52008ea1fe3","name":"Louise's Trattoria","url":"https:\/\/foursquare.com\/v\/louises-trattoria\/4a7b19f0f964a52008ea1fe3"}},{"id":"5b0861c7e727c40031ff3ee3","startTime":1527275972,"endTime":1527277964,"venueId":"4a7b19f0f964a52008ea1fe3","lat":34.02928630919207,"lng":-118.49868711988368,"venue":{"id":"4a7b19f0f964a52008ea1fe3","name":"Louise's Trattoria","url":"https:\/\/foursquare.com\/v\/louises-trattoria\/4a7b19f0f964a52008ea1fe3"}},{"id":"5b0855bf029a55003928bac0","startTime":1527272894,"endTime":1527275595,"venueId":"4a721daaf964a52064da1fe3","lat":34.03237617636091,"lng":-118.49506649638231,"venue":{"id":"4a721daaf964a52064da1fe3","name":"Peet's Coffee & Tea","url":"https:\/\/foursquare.com\/v\/peets-coffee--tea\/4a721daaf964a52064da1fe3"}},{"id":"5b0855be356b49002cf4202b","startTime":1527272894,"endTime":1527275595,"venueId":"4a721daaf964a52064da1fe3","lat":34.03237617636091,"lng":-118.49506649638231,"venue":{"id":"4a721daaf964a52064da1fe3","name":"Peet's Coffee & Tea","url":"https:\/\/foursquare.com\/v\/peets-coffee--tea\/4a721daaf964a52064da1fe3"}},{"id":"5b072ae65f68b9002ce67e47","startTime":1527195355,"endTime":1527196390,"venueId":"4d6f2c43d9bacbff8ada444e","lat":34.06763712573112,"lng":-118.3997281277697,"venue":{"id":"4d6f2c43d9bacbff8ada444e","name":"Tom Ford","url":"https:\/\/foursquare.com\/v\/tom-ford\/4d6f2c43d9bacbff8ada444e"}},{"id":"5b072ae660d11b002c412ec8","startTime":1527195355,"endTime":1527196390,"venueId":"4d6f2c43d9bacbff8ada444e","lat":34.06763712573112,"lng":-118.3997281277697,"venue":{"id":"4d6f2c43d9bacbff8ada444e","name":"Tom Ford","url":"https:\/\/foursquare.com\/v\/tom-ford\/4d6f2c43d9bacbff8ada444e"}},{"id":"5b0722e9088158002cd61cc8","startTime":1527194344,"endTime":1527194568,"venueId":"4c3a14132c8020a1cdc18d00","lat":34.07579837084517,"lng":-118.39749766525033,"venue":{"id":"4c3a14132c8020a1cdc18d00","name":"Beverly Hills Farmers Market","url":"https:\/\/foursquare.com\/v\/beverly-hills-farmers-market\/4c3a14132c8020a1cdc18d00"}},{"id":"5b0722e9872f7d002d41982e","startTime":1527194344,"endTime":1527194568,"venueId":"4c3a14132c8020a1cdc18d00","lat":34.07579837084517,"lng":-118.39749766525033,"venue":{"id":"4c3a14132c8020a1cdc18d00","name":"Beverly Hills Farmers Market","url":"https:\/\/foursquare.com\/v\/beverly-hills-farmers-market\/4c3a14132c8020a1cdc18d00"}},{"id":"5b0706a0dd12f8002cb107f2","startTime":1527187101,"endTime":1527193800,"venueId":"52d613fd11d2dbc1f7b5b959","lat":34.081149485570656,"lng":-118.38702229592822,"venue":{"id":"52d613fd11d2dbc1f7b5b959","name":"Gracias Madre","url":"https:\/\/foursquare.com\/v\/gracias-madre\/52d613fd11d2dbc1f7b5b959"}},{"id":"5b06d910588e36002c960007","startTime":1527175405,"endTime":1527179260,"venueId":"50f4ae1be4b0afcceb376d42","lat":34.01662815841752,"lng":-118.49952584446122,"venue":{"id":"50f4ae1be4b0afcceb376d42","name":"SoulCycle Santa Monica","url":"https:\/\/foursquare.com\/v\/soulcycle-santa-monica\/50f4ae1be4b0afcceb376d42"}},{"id":"5b06d9108b98fd002cc5ac52","startTime":1527175405,"endTime":1527179260,"venueId":"50f4ae1be4b0afcceb376d42","lat":34.01662815841752,"lng":-118.49952584446122,"venue":{"id":"50f4ae1be4b0afcceb376d42","name":"SoulCycle Santa Monica","url":"https:\/\/foursquare.com\/v\/soulcycle-santa-monica\/50f4ae1be4b0afcceb376d42"}},{"id":"5b060761e727c4002448cc1c","startTime":1527121747,"endTime":1527122194,"venueId":"4a7488aaf964a5207bde1fe3","lat":34.029097569836544,"lng":-118.4992977659667,"venue":{"id":"4a7488aaf964a5207bde1fe3","name":"Caffe Luxxe","url":"https:\/\/foursquare.com\/v\/caffe-luxxe\/4a7488aaf964a5207bde1fe3"}},{"id":"5b060761829b0c0039be6224","startTime":1527121747,"endTime":1527122194,"venueId":"4a7488aaf964a5207bde1fe3","lat":34.029097569836544,"lng":-118.4992977659667,"venue":{"id":"4a7488aaf964a5207bde1fe3","name":"Caffe Luxxe","url":"https:\/\/foursquare.com\/v\/caffe-luxxe\/4a7488aaf964a5207bde1fe3"}},{"id":"5b05c46f8b98fd002cd2828e","startTime":1527104620,"endTime":1527109058,"venueId":"4a4ea9c9f964a520e0ae1fe3","lat":34.03226223675034,"lng":-118.4955401274153,"venue":{"id":"4a4ea9c9f964a520e0ae1fe3","name":"R+D Kitchen","url":"https:\/\/foursquare.com\/v\/rd-kitchen\/4a4ea9c9f964a520e0ae1fe3"}},{"id":"5b05c46edd12f8002c83856a","startTime":1527104620,"endTime":1527109058,"venueId":"4a4ea9c9f964a520e0ae1fe3","lat":34.03226223675034,"lng":-118.4955401274153,"venue":{"id":"4a4ea9c9f964a520e0ae1fe3","name":"R+D Kitchen","url":"https:\/\/foursquare.com\/v\/rd-kitchen\/4a4ea9c9f964a520e0ae1fe3"}},{"id":"5b05a582491be700397ce029","startTime":1527095809,"endTime":1527104321,"venueId":"50f4ae1be4b0afcceb376d42","lat":34.016752554815035,"lng":-118.49932560759669,"venue":{"id":"50f4ae1be4b0afcceb376d42","name":"SoulCycle Santa Monica","url":"https:\/\/foursquare.com\/v\/soulcycle-santa-monica\/50f4ae1be4b0afcceb376d42"}},{"id":"5b05a582610f04002ce711cb","startTime":1527095809,"endTime":1527100790,"venueId":"50f4ae1be4b0afcceb376d42","lat":34.016752554815035,"lng":-118.49932560759669,"venue":{"id":"50f4ae1be4b0afcceb376d42","name":"SoulCycle Santa Monica","url":"https:\/\/foursquare.com\/v\/soulcycle-santa-monica\/50f4ae1be4b0afcceb376d42"}},{"id":"5b05a2fb588e36002c7be741","startTime":1527095809,"endTime":1527100790,"venueId":"50f4ae1be4b0afcceb376d42","lat":34.016752554815035,"lng":-118.49932560759669,"venue":{"id":"50f4ae1be4b0afcceb376d42","name":"SoulCycle Santa Monica","url":"https:\/\/foursquare.com\/v\/soulcycle-santa-monica\/50f4ae1be4b0afcceb376d42"}},{"id":"5b05a2fb340a58002c7fb57f","startTime":1527095809,"endTime":1527104321,"venueId":"50f4ae1be4b0afcceb376d42","lat":34.016752554815035,"lng":-118.49932560759669,"venue":{"id":"50f4ae1be4b0afcceb376d42","name":"SoulCycle Santa Monica","url":"https:\/\/foursquare.com\/v\/soulcycle-santa-monica\/50f4ae1be4b0afcceb376d42"}},{"id":"5b04566e35811b002c6720ea","startTime":1527010904,"endTime":1527012518,"venueId":"4a63670df964a520f4c41fe3","lat":34.03381045612097,"lng":-118.48037738035882,"venue":{"id":"4a63670df964a520f4c41fe3","name":"Bread & Porridge","url":"https:\/\/foursquare.com\/v\/bread--porridge\/4a63670df964a520f4c41fe3"}},{"id":"5b043692135b39002cc02d6c","startTime":1527002682,"endTime":1527006447,"venueId":"50f4ae1be4b0afcceb376d42","lat":34.0166088773385,"lng":-118.49930360157273,"venue":{"id":"50f4ae1be4b0afcceb376d42","name":"SoulCycle Santa Monica","url":"https:\/\/foursquare.com\/v\/soulcycle-santa-monica\/50f4ae1be4b0afcceb376d42"}},{"id":"5b0436921f8ed6002c2348f7","startTime":1527002682,"endTime":1527006447,"venueId":"50f4ae1be4b0afcceb376d42","lat":34.0166088773385,"lng":-118.49930360157273,"venue":{"id":"50f4ae1be4b0afcceb376d42","name":"SoulCycle Santa Monica","url":"https:\/\/foursquare.com\/v\/soulcycle-santa-monica\/50f4ae1be4b0afcceb376d42"}},{"id":"5b0320b1123a19002ceaf9f8","startTime":1526931633,"endTime":1526993637,"venueId":"5562a280498e8dcda03ba194","lat":34.03396777375718,"lng":-118.49281450301316,"venue":{"id":"5562a280498e8dcda03ba194","name":"Forma Restaurant & Cheese Bar","url":"https:\/\/foursquare.com\/v\/forma-restaurant--cheese-bar\/5562a280498e8dcda03ba194"}},{"id":"5b02fc708c812a002c081001","startTime":1526922352,"endTime":1526924178,"venueId":"4a721daaf964a52064da1fe3","lat":34.0324622204584,"lng":-118.49520352521431,"venue":{"id":"4a721daaf964a52064da1fe3","name":"Peet's Coffee & Tea","url":"https:\/\/foursquare.com\/v\/peets-coffee--tea\/4a721daaf964a52064da1fe3"}},{"id":"5b02fc70a423620039b8e1a9","startTime":1526922352,"endTime":1526924178,"venueId":"4a721daaf964a52064da1fe3","lat":34.0324622204584,"lng":-118.49520352521431,"venue":{"id":"4a721daaf964a52064da1fe3","name":"Peet's Coffee & Tea","url":"https:\/\/foursquare.com\/v\/peets-coffee--tea\/4a721daaf964a52064da1fe3"}},{"id":"5b01be7a364d97002c271f12","startTime":1526840952,"endTime":1526844229,"venueId":"4ceff689ed62721ed37563fd","lat":34.047511645662,"lng":-118.49047623212758,"venue":{"id":"4ceff689ed62721ed37563fd","name":"Farmshop","url":"https:\/\/foursquare.com\/v\/farmshop\/4ceff689ed62721ed37563fd"}},{"id":"5b01be7951950e002ce2fe25","startTime":1526840952,"endTime":1526844229,"venueId":"4ceff689ed62721ed37563fd","lat":34.047511645662,"lng":-118.49047623212758,"venue":{"id":"4ceff689ed62721ed37563fd","name":"Farmshop","url":"https:\/\/foursquare.com\/v\/farmshop\/4ceff689ed62721ed37563fd"}},{"id":"5b0079ea2b9844002c30cd08","startTime":1526757865,"endTime":1526760760,"venueId":"531168ef498ed0e38ca4c9f7","lat":34.029018720442366,"lng":-118.49877870803077,"venue":{"id":"531168ef498ed0e38ca4c9f7","name":"Art's Table","url":"https:\/\/foursquare.com\/v\/arts-table\/531168ef498ed0e38ca4c9f7"}},{"id":"5b0079ea75dcb7002c649d80","startTime":1526757865,"endTime":1526760760,"venueId":"531168ef498ed0e38ca4c9f7","lat":34.029018720442366,"lng":-118.49877870803077,"venue":{"id":"531168ef498ed0e38ca4c9f7","name":"Art's Table","url":"https:\/\/foursquare.com\/v\/arts-table\/531168ef498ed0e38ca4c9f7"}},{"id":"5b002c98851de50039b62ddb","startTime":1526737749,"endTime":1526741703,"venueId":"50f4ae1be4b0afcceb376d42","lat":34.01632273776306,"lng":-118.49882953586676,"venue":{"id":"50f4ae1be4b0afcceb376d42","name":"SoulCycle Santa Monica","url":"https:\/\/foursquare.com\/v\/soulcycle-santa-monica\/50f4ae1be4b0afcceb376d42"}},{"id":"5b002c2066f3cd002cc4151c","startTime":1526737749,"endTime":1526741703,"venueId":"50f4ae1be4b0afcceb376d42","lat":34.01632273776306,"lng":-118.49882953586676,"venue":{"id":"50f4ae1be4b0afcceb376d42","name":"SoulCycle Santa Monica","url":"https:\/\/foursquare.com\/v\/soulcycle-santa-monica\/50f4ae1be4b0afcceb376d42"}},{"id":"5aff56cd3b8307002ce3c203","startTime":1526683340,"endTime":1526683570,"venueId":"4b173723f964a520dcc323e3","lat":34.026947496303,"lng":-118.5000787553161,"venue":{"id":"4b173723f964a520dcc323e3","name":"Pavilions","url":"https:\/\/foursquare.com\/v\/pavilions\/4b173723f964a520dcc323e3"}},{"id":"5aff4d6f851de50039d3b3f5","startTime":1526680942,"endTime":1526682730,"venueId":"4a4ea9c9f964a520e0ae1fe3","lat":34.03215924720612,"lng":-118.49567087464423,"venue":{"id":"4a4ea9c9f964a520e0ae1fe3","name":"R+D Kitchen","url":"https:\/\/foursquare.com\/v\/rd-kitchen\/4a4ea9c9f964a520e0ae1fe3"}},{"id":"5aff4d6f95d986002cf94cff","startTime":1526680942,"endTime":1526683340,"venueId":"4a4ea9c9f964a520e0ae1fe3","lat":34.03215924720612,"lng":-118.49567087464423,"venue":{"id":"4a4ea9c9f964a520e0ae1fe3","name":"R+D Kitchen","url":"https:\/\/foursquare.com\/v\/rd-kitchen\/4a4ea9c9f964a520e0ae1fe3"}},{"id":"5aff32173d4791002cb8e43c","startTime":1526673884,"endTime":1526674190,"venueId":"59068deae1f0aa5911d15f41","lat":33.945089437545,"lng":-118.40599862603834,"venue":{"id":"59068deae1f0aa5911d15f41","name":"Ride Service Pick-up B","url":"https:\/\/foursquare.com\/v\/ride-service-pickup-b\/59068deae1f0aa5911d15f41"}},{"id":"5aff3011b3c961002cd8a730","startTime":1526651466,"endTime":1526671520,"venueId":"43a52546f964a520532c1fe3","lat":40.59750415648713,"lng":-73.81240198366044,"venue":{"id":"43a52546f964a520532c1fe3","name":"John F. Kennedy International Airport (JFK)","url":"https:\/\/foursquare.com\/v\/john-f-kennedy-international-airport-jfk\/43a52546f964a520532c1fe3"}},{"id":"5aff30103d4791002cb66845","startTime":1526673424,"endTime":1526673884,"venueId":"439ec330f964a520102c1fe3","lat":33.946076421105396,"lng":-118.40399610007469,"venue":{"id":"439ec330f964a520102c1fe3","name":"Los Angeles International Airport (LAX)","url":"https:\/\/foursquare.com\/v\/los-angeles-international-airport-lax\/439ec330f964a520102c1fe3"}},{"id":"5aff28dcfdb9a7002cc96496","startTime":1526651476,"endTime":1526671520,"venueId":"519f858e498e2c23407993f6","lat":40.59750415648713,"lng":-73.81240198366044,"venue":{"id":"519f858e498e2c23407993f6","name":"Delta SkyClub & SkyDeck","url":"https:\/\/foursquare.com\/v\/delta-skyclub--skydeck\/519f858e498e2c23407993f6"}},{"id":"5afecf0d75dcb7002c81515b","startTime":1526648510,"endTime":1526649385,"venueId":"4a19c1def964a520497a1fe3","lat":40.64401472990191,"lng":-73.78264705592986,"venue":{"id":"4a19c1def964a520497a1fe3","name":"Terminal 4","url":"https:\/\/foursquare.com\/v\/terminal-4\/4a19c1def964a520497a1fe3"}},{"id":"5afecf0c95d986002c6b05f1","startTime":1526648510,"endTime":1526649385,"venueId":"4a19c1def964a520497a1fe3","lat":40.64401472990191,"lng":-73.78264705592986,"venue":{"id":"4a19c1def964a520497a1fe3","name":"Terminal 4","url":"https:\/\/foursquare.com\/v\/terminal-4\/4a19c1def964a520497a1fe3"}},{"id":"5afec0ad2f97ec002c4f2eb3","startTime":1526644908,"endTime":1526645658,"venueId":"4aac087ff964a520c35b20e3","lat":40.746454265843475,"lng":-73.97569408283952,"venue":{"id":"4aac087ff964a520c35b20e3","name":"East River Esplanade","url":"https:\/\/foursquare.com\/v\/east-river-esplanade\/4aac087ff964a520c35b20e3"}},{"id":"5afec0ad1f8ed6002c10413c","startTime":1526644908,"endTime":1526645658,"venueId":"4aac087ff964a520c35b20e3","lat":40.746454265843475,"lng":-73.97569408283952,"venue":{"id":"4aac087ff964a520c35b20e3","name":"East River Esplanade","url":"https:\/\/foursquare.com\/v\/east-river-esplanade\/4aac087ff964a520c35b20e3"}},{"id":"5afeb676625a66002c8c7f17","startTime":1526642230,"endTime":1526643879,"venueId":"3fd66200f964a5205de41ee3","lat":40.7382626800016,"lng":-73.98784357407473,"venue":{"id":"3fd66200f964a5205de41ee3","name":"L'Express","url":"https:\/\/foursquare.com\/v\/lexpress\/3fd66200f964a5205de41ee3"}},{"id":"5afeb676fdb9a7002c51102c","startTime":1526642230,"endTime":1526643879,"venueId":"3fd66200f964a5205de41ee3","lat":40.7382626800016,"lng":-73.98784357407473,"venue":{"id":"3fd66200f964a5205de41ee3","name":"L'Express","url":"https:\/\/foursquare.com\/v\/lexpress\/3fd66200f964a5205de41ee3"}},{"id":"5afe439fd4cc98002c8bdd1c","startTime":1526612830,"endTime":1526611527,"venueId":"4afb2990f964a520a91b22e3","lat":40.73851672028411,"lng":-73.98558799880944,"venue":{"id":"4afb2990f964a520a91b22e3","name":"Maialino","url":"https:\/\/foursquare.com\/v\/maialino\/4afb2990f964a520a91b22e3"}},{"id":"5afe439e3b8307002cf99f3a","startTime":1526612830,"endTime":1526611527,"venueId":"4afb2990f964a520a91b22e3","lat":40.73851672028411,"lng":-73.98558799880944,"venue":{"id":"4afb2990f964a520a91b22e3","name":"Maialino","url":"https:\/\/foursquare.com\/v\/maialino\/4afb2990f964a520a91b22e3"}},{"id":"5afe3c34f79faa00391b44de","startTime":1526610895,"endTime":1526612830,"venueId":"4b186041f964a520bed123e3","lat":40.76789868433235,"lng":-73.96413497037022,"venue":{"id":"4b186041f964a520bed123e3","name":"MTA Subway - 68th St\/Hunter College (6)","url":"https:\/\/foursquare.com\/v\/mta-subway--68th-sthunter-college-6\/4b186041f964a520bed123e3"}},{"id":"5afe3c342db4a9002cff1dd4","startTime":1526610895,"endTime":1526612830,"venueId":"4b186041f964a520bed123e3","lat":40.76789868433235,"lng":-73.96413497037022,"venue":{"id":"4b186041f964a520bed123e3","name":"MTA Subway - 68th St\/Hunter College (6)","url":"https:\/\/foursquare.com\/v\/mta-subway--68th-sthunter-college-6\/4b186041f964a520bed123e3"}},{"id":"5afe0b895f68b9003a6dd44f","startTime":1526598440,"endTime":1526610530,"venueId":"4b81b128f964a5202bb830e3","lat":40.77057374663108,"lng":-73.96001955539892,"venue":{"id":"4b81b128f964a5202bb830e3","name":"T-Bar Steak & Lounge","url":"https:\/\/foursquare.com\/v\/tbar-steak--lounge\/4b81b128f964a5202bb830e3"}},{"id":"5afe0b88bcbf7a002ca8dad2","startTime":1526598440,"endTime":1526612830,"venueId":"4b81b128f964a5202bb830e3","lat":40.77057374663108,"lng":-73.96001955539892,"venue":{"id":"4b81b128f964a5202bb830e3","name":"T-Bar Steak & Lounge","url":"https:\/\/foursquare.com\/v\/tbar-steak--lounge\/4b81b128f964a5202bb830e3"}},{"id":"5afe07d3054e29002ccee880","startTime":1526597585,"endTime":1526598069,"venueId":"42a39200f964a520df241fe3","lat":40.76990061758173,"lng":-73.96492117432018,"venue":{"id":"42a39200f964a520df241fe3","name":"Asia Society New York","url":"https:\/\/foursquare.com\/v\/asia-society-new-york\/42a39200f964a520df241fe3"}},{"id":"5afe07d1d3cce8002c83b1e4","startTime":1526597585,"endTime":1526598069,"venueId":"42a39200f964a520df241fe3","lat":40.76990061758173,"lng":-73.96492117432018,"venue":{"id":"42a39200f964a520df241fe3","name":"Asia Society New York","url":"https:\/\/foursquare.com\/v\/asia-society-new-york\/42a39200f964a520df241fe3"}},{"id":"5afdd3aa6f0aa2002cd3f5b4","startTime":1526584109,"endTime":1526596380,"venueId":"4fe2a8cfe4b019c9a5c3e4a2","lat":40.73850324233775,"lng":-73.98569704108402,"venue":{"id":"4fe2a8cfe4b019c9a5c3e4a2","name":"The Rose Bar","url":"https:\/\/foursquare.com\/v\/the-rose-bar\/4fe2a8cfe4b019c9a5c3e4a2"}},{"id":"5afdd3a8f0ca95002cd4eb7d","startTime":1526584109,"endTime":1526596380,"venueId":"4fe2a8cfe4b019c9a5c3e4a2","lat":40.73850324233775,"lng":-73.98569704108402,"venue":{"id":"4fe2a8cfe4b019c9a5c3e4a2","name":"The Rose Bar","url":"https:\/\/foursquare.com\/v\/the-rose-bar\/4fe2a8cfe4b019c9a5c3e4a2"}},{"id":"5afdc893419a9e002c1fabdb","startTime":1526581394,"endTime":1526583586,"venueId":"3fd66200f964a52008e91ee3","lat":40.73677831538895,"lng":-73.98679943168774,"venue":{"id":"3fd66200f964a52008e91ee3","name":"Irving Farm Coffee Roasters","url":"https:\/\/foursquare.com\/v\/irving-farm-coffee-roasters\/3fd66200f964a52008e91ee3"}},{"id":"5afdc893b9a5a8002c6e4f7f","startTime":1526581394,"endTime":1526583586,"venueId":"3fd66200f964a52008e91ee3","lat":40.73677831538895,"lng":-73.98679943168774,"venue":{"id":"3fd66200f964a52008e91ee3","name":"Irving Farm Coffee Roasters","url":"https:\/\/foursquare.com\/v\/irving-farm-coffee-roasters\/3fd66200f964a52008e91ee3"}},{"id":"5afdc4b8c876c8002cc65df6","startTime":1526580261,"endTime":1526581394,"venueId":"4b54cfd0f964a520a1cd27e3","lat":40.76548800305799,"lng":-73.98010137076916,"venue":{"id":"4b54cfd0f964a520a1cd27e3","name":"MTA Subway - 57th St\/7th Ave (N\/Q\/R\/W)","url":"https:\/\/foursquare.com\/v\/mta-subway--57th-st7th-ave-nqrw\/4b54cfd0f964a520a1cd27e3"}},{"id":"5afdc4b8ad1789002c5d1ab8","startTime":1526580261,"endTime":1526581394,"venueId":"4b54cfd0f964a520a1cd27e3","lat":40.76548800305799,"lng":-73.98010137076916,"venue":{"id":"4b54cfd0f964a520a1cd27e3","name":"MTA Subway - 57th St\/7th Ave (N\/Q\/R\/W)","url":"https:\/\/foursquare.com\/v\/mta-subway--57th-st7th-ave-nqrw\/4b54cfd0f964a520a1cd27e3"}},{"id":"5afdaeaed69ed0002cf4439b","startTime":1526574688,"endTime":1526579942,"venueId":"4a65d591f964a520a0c71fe3","lat":40.76557583921311,"lng":-73.98105488809541,"venue":{"id":"4a65d591f964a520a0c71fe3","name":"Protiviti","url":"https:\/\/foursquare.com\/v\/protiviti\/4a65d591f964a520a0c71fe3"}},{"id":"5afdae2a610f04002ca3ebe0","startTime":1526574535,"endTime":1526574688,"venueId":"3fd66200f964a52098e71ee3","lat":40.765193521405095,"lng":-73.98080810215939,"venue":{"id":"3fd66200f964a52098e71ee3","name":"Redeye Grill","url":"https:\/\/foursquare.com\/v\/redeye-grill\/3fd66200f964a52098e71ee3"}},{"id":"5afd9c4cf79faa0039a9b06c","startTime":1526570058,"endTime":1526573682,"venueId":"4dcc0c0e1fc7eca44b1f1ed6","lat":40.72535315728266,"lng":-74.00520384995865,"venue":{"id":"4dcc0c0e1fc7eca44b1f1ed6","name":"Urban Plaza - Hudson Square","url":"https:\/\/foursquare.com\/v\/urban-plaza--hudson-square\/4dcc0c0e1fc7eca44b1f1ed6"}},{"id":"5afd9c4b51950e002c2e1b82","startTime":1526570058,"endTime":1526579942,"venueId":"4dcc0c0e1fc7eca44b1f1ed6","lat":40.72535315728266,"lng":-74.00520384995865,"venue":{"id":"4dcc0c0e1fc7eca44b1f1ed6","name":"Urban Plaza - Hudson Square","url":"https:\/\/foursquare.com\/v\/urban-plaza--hudson-square\/4dcc0c0e1fc7eca44b1f1ed6"}},{"id":"5afd897f2be425002cb2c97d","startTime":1526565160,"endTime":1526579942,"venueId":"5accb2a2b700856eda9aa226","lat":40.72014055719399,"lng":-73.99989545684731,"venue":{"id":"5accb2a2b700856eda9aa226","name":"Fueled","url":"https:\/\/foursquare.com\/v\/fueled\/5accb2a2b700856eda9aa226"}},{"id":"5afd897f4420d8002c739742","startTime":1526565160,"endTime":1526569375,"venueId":"5accb2a2b700856eda9aa226","lat":40.72014055719399,"lng":-73.99989545684731,"venue":{"id":"5accb2a2b700856eda9aa226","name":"Fueled","url":"https:\/\/foursquare.com\/v\/fueled\/5accb2a2b700856eda9aa226"}},{"id":"5afd75ad6f0aa2002c830aba","startTime":1526560073,"endTime":1526564421,"venueId":"45a51c02f964a520fa401fe3","lat":40.73807264159859,"lng":-73.99055222906233,"venue":{"id":"45a51c02f964a520fa401fe3","name":"Tarallucci e Vino Restaurant","url":"https:\/\/foursquare.com\/v\/tarallucci-e-vino-restaurant\/45a51c02f964a520fa401fe3"}},{"id":"5afc9fa0dd12f8002c949bb8","startTime":1526505279,"endTime":1526559767,"venueId":"4afb2990f964a520a91b22e3","lat":40.73848780677302,"lng":-73.98561750120727,"venue":{"id":"4afb2990f964a520a91b22e3","name":"Maialino","url":"https:\/\/foursquare.com\/v\/maialino\/4afb2990f964a520a91b22e3"}},{"id":"5afc9fa05f68b9002c51f2c7","startTime":1526505279,"endTime":1526564421,"venueId":"4afb2990f964a520a91b22e3","lat":40.73848780677302,"lng":-73.98561750120727,"venue":{"id":"4afb2990f964a520a91b22e3","name":"Maialino","url":"https:\/\/foursquare.com\/v\/maialino\/4afb2990f964a520a91b22e3"}},{"id":"5afc9c7ddd12f8002c92a5ea","startTime":1526504466,"endTime":1526504790,"venueId":"4a86f917f964a520df0120e3","lat":40.73754892908983,"lng":-73.99189019985974,"venue":{"id":"4a86f917f964a520df0120e3","name":"J.Crew","url":"https:\/\/foursquare.com\/v\/jcrew\/4a86f917f964a520df0120e3"}},{"id":"5afc9c7d780eee002c00736d","startTime":1526504466,"endTime":1526504790,"venueId":"4a86f917f964a520df0120e3","lat":40.73754892908983,"lng":-73.99189019985974,"venue":{"id":"4a86f917f964a520df0120e3","name":"J.Crew","url":"https:\/\/foursquare.com\/v\/jcrew\/4a86f917f964a520df0120e3"}},{"id":"5afc99ba60d11b002cf1323b","startTime":1526480685,"endTime":1526503865,"venueId":"4fe2a8cfe4b019c9a5c3e4a2","lat":40.73927960883502,"lng":-73.98810743344491,"venue":{"id":"4fe2a8cfe4b019c9a5c3e4a2","name":"The Rose Bar","url":"https:\/\/foursquare.com\/v\/the-rose-bar\/4fe2a8cfe4b019c9a5c3e4a2"}},{"id":"5afc5507333d6b0024b79015","startTime":1526486180,"endTime":1526503865,"venueId":"4fe2a8cfe4b019c9a5c3e4a2","lat":40.738492653743755,"lng":-73.98562243321864,"venue":{"id":"4fe2a8cfe4b019c9a5c3e4a2","name":"The Rose Bar","url":"https:\/\/foursquare.com\/v\/the-rose-bar\/4fe2a8cfe4b019c9a5c3e4a2"}},{"id":"5afc4a833af9880039135c06","startTime":1526483498,"endTime":1526485632,"venueId":"3fd66200f964a52008e91ee3","lat":40.73677689042723,"lng":-73.98685713585746,"venue":{"id":"3fd66200f964a52008e91ee3","name":"Irving Farm Coffee Roasters","url":"https:\/\/foursquare.com\/v\/irving-farm-coffee-roasters\/3fd66200f964a52008e91ee3"}},{"id":"5afc411d7269fe003962708f","startTime":1526481039,"endTime":1526482941,"venueId":"4afb2990f964a520a91b22e3","lat":40.73845474050461,"lng":-73.98555930346373,"venue":{"id":"4afb2990f964a520a91b22e3","name":"Maialino","url":"https:\/\/foursquare.com\/v\/maialino\/4afb2990f964a520a91b22e3"}},{"id":"5afc3af7e727c4002473e1f0","startTime":1526479552,"endTime":1526479773,"venueId":"45b893e3f964a520cf411fe3","lat":40.75254029367012,"lng":-73.99447236474981,"venue":{"id":"45b893e3f964a520cf411fe3","name":"AMC Loews 34th Street 14","url":"https:\/\/foursquare.com\/v\/amc-loews-34th-street-14\/45b893e3f964a520cf411fe3"}},{"id":"5afc3af6588e36002cc75c1a","startTime":1526479552,"endTime":1526479773,"venueId":"45b893e3f964a520cf411fe3","lat":40.75254029367012,"lng":-73.99447236474981,"venue":{"id":"45b893e3f964a520cf411fe3","name":"AMC Loews 34th Street 14","url":"https:\/\/foursquare.com\/v\/amc-loews-34th-street-14\/45b893e3f964a520cf411fe3"}},{"id":"5afc37fe89e4900039c33e27","startTime":1526478786,"endTime":1526478983,"venueId":"42911d00f964a520f5231fe3","lat":40.75156502804787,"lng":-73.9942315142106,"venue":{"id":"42911d00f964a520f5231fe3","name":"New York Penn Station (NYP)","url":"https:\/\/foursquare.com\/v\/new-york-penn-station\/42911d00f964a520f5231fe3"}},{"id":"5afc3265829b0c002c99ca35","startTime":1526477367,"endTime":1526477918,"venueId":"4d9b87abcbc96ea8ddd6ed25","lat":40.73415479152581,"lng":-74.16426443860412,"venue":{"id":"4d9b87abcbc96ea8ddd6ed25","name":"Newark Penn Station","url":"https:\/\/foursquare.com\/v\/newark-penn-station\/4d9b87abcbc96ea8ddd6ed25"}},{"id":"5afc2050bcbf7a0039141d0a","startTime":1526472694,"endTime":1526474039,"venueId":"501aa74a3d7c792fb9ffe12b","lat":39.955479605536034,"lng":-75.18215667621669,"venue":{"id":"501aa74a3d7c792fb9ffe12b","name":"30th Street Station (ZFV)","url":"https:\/\/foursquare.com\/v\/30th-street-station-phl\/501aa74a3d7c792fb9ffe12b"}},{"id":"5afc2050f79faa002cdc8d8c","startTime":1526472694,"endTime":1526474039,"venueId":"501aa74a3d7c792fb9ffe12b","lat":39.955479605536034,"lng":-75.18215667621669,"venue":{"id":"501aa74a3d7c792fb9ffe12b","name":"30th Street Station (ZFV)","url":"https:\/\/foursquare.com\/v\/30th-street-station-phl\/501aa74a3d7c792fb9ffe12b"}},{"id":"5afb93a16f0aa2002c5f8418","startTime":1526436665,"endTime":1526474039,"venueId":"4afb8f59f964a520a11e22e3","lat":39.95087935638544,"lng":-75.16880315323074,"venue":{"id":"4afb8f59f964a520a11e22e3","name":"Kimpton Hotel Palomar Philadelphia","url":"https:\/\/foursquare.com\/v\/kimpton-hotel-palomar-philadelphia\/4afb8f59f964a520a11e22e3"}},{"id":"5afb93a1780eee002c4a824c","startTime":1526436665,"endTime":1526437072,"venueId":"4afb8f59f964a520a11e22e3","lat":39.95087935638544,"lng":-75.16880315323074,"venue":{"id":"4afb8f59f964a520a11e22e3","name":"Kimpton Hotel Palomar Philadelphia","url":"https:\/\/foursquare.com\/v\/kimpton-hotel-palomar-philadelphia\/4afb8f59f964a520a11e22e3"}},{"id":"5afb752ed3cce8002ce16eb7","startTime":1526428828,"endTime":1526435402,"venueId":"5849e68efd271673067f5a3c","lat":40.008106989028846,"lng":-75.21302822300778,"venue":{"id":"5849e68efd271673067f5a3c","name":"B2 Bluefin","url":"https:\/\/foursquare.com\/v\/b2-bluefin\/5849e68efd271673067f5a3c"}},{"id":"5afb752e6f0aa2002c55449b","startTime":1526428828,"endTime":1526435402,"venueId":"5849e68efd271673067f5a3c","lat":40.008106989028846,"lng":-75.21302822300778,"venue":{"id":"5849e68efd271673067f5a3c","name":"B2 Bluefin","url":"https:\/\/foursquare.com\/v\/b2-bluefin\/5849e68efd271673067f5a3c"}},{"id":"5afb582c4857090024f6b6d9","startTime":1526421454,"endTime":1526428507,"venueId":"4b1fa798f964a520bd2724e3","lat":40.01221441500489,"lng":-75.21437791307548,"venue":{"id":"4b1fa798f964a520bd2724e3","name":"iHeartMedia","url":"https:\/\/foursquare.com\/v\/iheartmedia\/4b1fa798f964a520bd2724e3"}},{"id":"5afb582c35811b002c15b21d","startTime":1526421454,"endTime":1526428507,"venueId":"4b1fa798f964a520bd2724e3","lat":40.01221441500489,"lng":-75.21437791307548,"venue":{"id":"4b1fa798f964a520bd2724e3","name":"iHeartMedia","url":"https:\/\/foursquare.com\/v\/iheartmedia\/4b1fa798f964a520bd2724e3"}},{"id":"5afb4a7a491be7002cc3820c","startTime":1526417896,"endTime":1526420000,"venueId":"4afb8f59f964a520a11e22e3","lat":39.95078833827693,"lng":-75.1688202529646,"venue":{"id":"4afb8f59f964a520a11e22e3","name":"Kimpton Hotel Palomar Philadelphia","url":"https:\/\/foursquare.com\/v\/kimpton-hotel-palomar-philadelphia\/4afb8f59f964a520a11e22e3"}},{"id":"5afb4a79e679bc002c4defe1","startTime":1526417896,"endTime":1526420000,"venueId":"4afb8f59f964a520a11e22e3","lat":39.95078833827693,"lng":-75.1688202529646,"venue":{"id":"4afb8f59f964a520a11e22e3","name":"Kimpton Hotel Palomar Philadelphia","url":"https:\/\/foursquare.com\/v\/kimpton-hotel-palomar-philadelphia\/4afb8f59f964a520a11e22e3"}},{"id":"5afb43b7e727c400247fa1c2","startTime":1526416211,"endTime":1526416614,"venueId":"4bcb6659fb84c9b6b9c81e3e","lat":39.87792126660002,"lng":-75.24167094487325,"venue":{"id":"4bcb6659fb84c9b6b9c81e3e","name":"Baggage Claim D","url":"https:\/\/foursquare.com\/v\/baggage-claim-d\/4bcb6659fb84c9b6b9c81e3e"}},{"id":"5afb43b1aa6c95002c70fe0a","startTime":1526416211,"endTime":1526416614,"venueId":"4bcb6659fb84c9b6b9c81e3e","lat":39.87792126660002,"lng":-75.24167094487325,"venue":{"id":"4bcb6659fb84c9b6b9c81e3e","name":"Baggage Claim D","url":"https:\/\/foursquare.com\/v\/baggage-claim-d\/4bcb6659fb84c9b6b9c81e3e"}},{"id":"5afaf3e63d479100392dec10","startTime":1526395785,"endTime":1526415478,"venueId":"4a5d7fa0f964a520a9bd1fe3","lat":40.78849342324236,"lng":-111.98142024001712,"venue":{"id":"4a5d7fa0f964a520a9bd1fe3","name":"Salt Lake City International Airport (SLC)","url":"https:\/\/foursquare.com\/v\/salt-lake-city-international-airport-slc\/4a5d7fa0f964a520a9bd1fe3"}},{"id":"5afaf3e6ee628b002c4a065e","startTime":1526395785,"endTime":1526416211,"venueId":"4a5d7fa0f964a520a9bd1fe3","lat":40.78849342324236,"lng":-111.98142024001712,"venue":{"id":"4a5d7fa0f964a520a9bd1fe3","name":"Salt Lake City International Airport (SLC)","url":"https:\/\/foursquare.com\/v\/salt-lake-city-international-airport-slc\/4a5d7fa0f964a520a9bd1fe3"}},{"id":"5afaef2a054e29002c5c4043","startTime":1526393418,"endTime":1526394665,"venueId":"5140f9e2e4b05feaa34b5405","lat":40.77902968917874,"lng":-111.9365119832419,"venue":{"id":"5140f9e2e4b05feaa34b5405","name":"Pacific Ocean","url":"https:\/\/foursquare.com\/v\/pacific-ocean\/5140f9e2e4b05feaa34b5405"}},{"id":"5afac991dd12f8002c02dfbf","startTime":1526385040,"endTime":1526394665,"venueId":"4d4974eb7d36f04d67de11e5","lat":33.9451981658044,"lng":-118.40720241216528,"venue":{"id":"4d4974eb7d36f04d67de11e5","name":"TSA Passenger Screening","url":"https:\/\/foursquare.com\/v\/tsa-passenger-screening\/4d4974eb7d36f04d67de11e5"}},{"id":"5afac991588e36002cc13521","startTime":1526385040,"endTime":1526386073,"venueId":"4d4974eb7d36f04d67de11e5","lat":33.9451981658044,"lng":-118.40720241216528,"venue":{"id":"4d4974eb7d36f04d67de11e5","name":"TSA Passenger Screening","url":"https:\/\/foursquare.com\/v\/tsa-passenger-screening\/4d4974eb7d36f04d67de11e5"}},{"id":"5af9fc67aa6c95002c992b61","startTime":1526332518,"endTime":1526333386,"venueId":"4ea1e90b7ee52a35dcab82d6","lat":34.07532856041008,"lng":-118.39417135040193,"venue":{"id":"4ea1e90b7ee52a35dcab82d6","name":"The Larder at Maple Drive","url":"https:\/\/foursquare.com\/v\/the-larder-at-maple-drive\/4ea1e90b7ee52a35dcab82d6"}},{"id":"5af9fc6717556200395136bd","startTime":1526332518,"endTime":1526333386,"venueId":"4ea1e90b7ee52a35dcab82d6","lat":34.07532856041008,"lng":-118.39417135040193,"venue":{"id":"4ea1e90b7ee52a35dcab82d6","name":"The Larder at Maple Drive","url":"https:\/\/foursquare.com\/v\/the-larder-at-maple-drive\/4ea1e90b7ee52a35dcab82d6"}},{"id":"5af88ea8054e29002cc74d13","startTime":1526238888,"endTime":1526306718,"venueId":"4a4ea9c9f964a520e0ae1fe3","lat":34.03201460743711,"lng":-118.49559091170048,"venue":{"id":"4a4ea9c9f964a520e0ae1fe3","name":"R+D Kitchen","url":"https:\/\/foursquare.com\/v\/rd-kitchen\/4a4ea9c9f964a520e0ae1fe3"}},{"id":"5af88ea84420d80039c430a9","startTime":1526238888,"endTime":1526242479,"venueId":"4a4ea9c9f964a520e0ae1fe3","lat":34.03201460743711,"lng":-118.49559091170048,"venue":{"id":"4a4ea9c9f964a520e0ae1fe3","name":"R+D Kitchen","url":"https:\/\/foursquare.com\/v\/rd-kitchen\/4a4ea9c9f964a520e0ae1fe3"}},{"id":"5af8518778782c002c9b2899","startTime":1526223143,"endTime":1526226961,"venueId":"50f4ae1be4b0afcceb376d42","lat":34.0168023658973,"lng":-118.4994453488254,"venue":{"id":"50f4ae1be4b0afcceb376d42","name":"SoulCycle Santa Monica","url":"https:\/\/foursquare.com\/v\/soulcycle-santa-monica\/50f4ae1be4b0afcceb376d42"}},{"id":"5af85187f427de002c53846c","startTime":1526223143,"endTime":1526226961,"venueId":"50f4ae1be4b0afcceb376d42","lat":34.0168023658973,"lng":-118.4994453488254,"venue":{"id":"50f4ae1be4b0afcceb376d42","name":"SoulCycle Santa Monica","url":"https:\/\/foursquare.com\/v\/soulcycle-santa-monica\/50f4ae1be4b0afcceb376d42"}},{"id":"5af7643e625a66002c889ff4","startTime":1526162494,"endTime":1526222651,"venueId":"581e09a716dbbc451b556238","lat":34.033383826468544,"lng":-118.49217550009544,"venue":{"id":"581e09a716dbbc451b556238","name":"Margo's","url":"https:\/\/foursquare.com\/v\/margos\/581e09a716dbbc451b556238"}},{"id":"5af7643ef79faa002c9006f4","startTime":1526162494,"endTime":1526222651,"venueId":"581e09a716dbbc451b556238","lat":34.033383826468544,"lng":-118.49217550009544,"venue":{"id":"581e09a716dbbc451b556238","name":"Margo's","url":"https:\/\/foursquare.com\/v\/margos\/581e09a716dbbc451b556238"}},{"id":"5af760eb610f04002c2b6644","startTime":1526161640,"endTime":1526161889,"venueId":"4b81d1d2f964a520c9bf30e3","lat":34.03253593897323,"lng":-118.49481025750717,"venue":{"id":"4b81d1d2f964a520c9bf30e3","name":"Papyrus","url":"https:\/\/foursquare.com\/v\/papyrus\/4b81d1d2f964a520c9bf30e3"}},{"id":"5af760e923a2e6002cd570b4","startTime":1526161640,"endTime":1526161889,"venueId":"4b81d1d2f964a520c9bf30e3","lat":34.03253593897323,"lng":-118.49481025750717,"venue":{"id":"4b81d1d2f964a520c9bf30e3","name":"Papyrus","url":"https:\/\/foursquare.com\/v\/papyrus\/4b81d1d2f964a520c9bf30e3"}},{"id":"5af72d33f96b2c003912a6c2","startTime":1526148401,"endTime":1526151895,"venueId":"531168ef498ed0e38ca4c9f7","lat":34.02907241521664,"lng":-118.4987614238902,"venue":{"id":"531168ef498ed0e38ca4c9f7","name":"Art's Table","url":"https:\/\/foursquare.com\/v\/arts-table\/531168ef498ed0e38ca4c9f7"}},{"id":"5af72d33471d6e002ccdd7e9","startTime":1526148401,"endTime":1526151895,"venueId":"531168ef498ed0e38ca4c9f7","lat":34.02907241521664,"lng":-118.4987614238902,"venue":{"id":"531168ef498ed0e38ca4c9f7","name":"Art's Table","url":"https:\/\/foursquare.com\/v\/arts-table\/531168ef498ed0e38ca4c9f7"}},{"id":"5af717a9180b91002c4e4cd1","startTime":1526142828,"endTime":1526145121,"venueId":"4abe3d2ef964a5202a8c20e3","lat":33.894347444943904,"lng":-118.39595152365574,"venue":{"id":"4abe3d2ef964a5202a8c20e3","name":"Red Carpet Car Wash","url":"https:\/\/foursquare.com\/v\/red-carpet-car-wash\/4abe3d2ef964a5202a8c20e3"}},{"id":"5af717a9340a580039fc27d6","startTime":1526142828,"endTime":1526145121,"venueId":"4abe3d2ef964a5202a8c20e3","lat":33.894347444943904,"lng":-118.39595152365574,"venue":{"id":"4abe3d2ef964a5202a8c20e3","name":"Red Carpet Car Wash","url":"https:\/\/foursquare.com\/v\/red-carpet-car-wash\/4abe3d2ef964a5202a8c20e3"}},{"id":"5af7021dd3cce8002c59de92","startTime":1526137313,"endTime":1526142588,"venueId":"55917612498e512b3472bffc","lat":33.90336812414098,"lng":-118.39457649002362,"venue":{"id":"55917612498e512b3472bffc","name":"SoulCycle Manhattan Beach","url":"https:\/\/foursquare.com\/v\/soulcycle-manhattan-beach\/55917612498e512b3472bffc"}},{"id":"5af7021dad1789002dde46b1","startTime":1526137313,"endTime":1526142588,"venueId":"55917612498e512b3472bffc","lat":33.90336812414098,"lng":-118.39457649002362,"venue":{"id":"55917612498e512b3472bffc","name":"SoulCycle Manhattan Beach","url":"https:\/\/foursquare.com\/v\/soulcycle-manhattan-beach\/55917612498e512b3472bffc"}},{"id":"5af608c360d11b002cbd4cac","startTime":1526073537,"endTime":1526073820,"venueId":"4b4650faf964a520651d26e3","lat":34.071748655089266,"lng":-118.39933463426135,"venue":{"id":"4b4650faf964a520651d26e3","name":"Paradigm Agency","url":"https:\/\/foursquare.com\/v\/paradigm-agency\/4b4650faf964a520651d26e3"}},{"id":"5af608c195d9860039ab72ec","startTime":1526073537,"endTime":1526082604,"venueId":"4b4650faf964a520651d26e3","lat":34.071748655089266,"lng":-118.39933463426135,"venue":{"id":"4b4650faf964a520651d26e3","name":"Paradigm Agency","url":"https:\/\/foursquare.com\/v\/paradigm-agency\/4b4650faf964a520651d26e3"}},{"id":"5af5f6d40e5da800324ac2e7","startTime":1526068946,"endTime":1526073355,"venueId":"457a677bf964a520e53e1fe3","lat":34.068968619228016,"lng":-118.39958032265906,"venue":{"id":"457a677bf964a520e53e1fe3","name":"The Palm","url":"https:\/\/foursquare.com\/v\/the-palm\/457a677bf964a520e53e1fe3"}},{"id":"5af5f6d2625a66002c8a96c2","startTime":1526068946,"endTime":1526073355,"venueId":"457a677bf964a520e53e1fe3","lat":34.068968619228016,"lng":-118.39958032265906,"venue":{"id":"457a677bf964a520e53e1fe3","name":"The Palm","url":"https:\/\/foursquare.com\/v\/the-palm\/457a677bf964a520e53e1fe3"}},{"id":"5af4f9acf79faa002c651983","startTime":1526004040,"endTime":1526007358,"venueId":"5ace3663f5e9d7488d79fbf7","lat":34.03694664128956,"lng":-118.4751988312882,"venue":{"id":"5ace3663f5e9d7488d79fbf7","name":"Erewhon Natural Foods Market","url":"https:\/\/foursquare.com\/v\/erewhon-natural-foods-market\/5ace3663f5e9d7488d79fbf7"}},{"id":"5af4f9ac51950e002c0b77e7","startTime":1526004040,"endTime":1526007358,"venueId":"5ace3663f5e9d7488d79fbf7","lat":34.03694664128956,"lng":-118.4751988312882,"venue":{"id":"5ace3663f5e9d7488d79fbf7","name":"Erewhon Natural Foods Market","url":"https:\/\/foursquare.com\/v\/erewhon-natural-foods-market\/5ace3663f5e9d7488d79fbf7"}},{"id":"5af49e4148b04e002c6c1ebe","startTime":1525980735,"endTime":1525986594,"venueId":"4724cd87f964a520d64b1fe3","lat":34.07337363682478,"lng":-118.3817386288728,"venue":{"id":"4724cd87f964a520d64b1fe3","name":"A.O.C.","url":"https:\/\/foursquare.com\/v\/aoc\/4724cd87f964a520d64b1fe3"}},{"id":"5af49e3ff79faa002c37839a","startTime":1525980735,"endTime":1526002412,"venueId":"4724cd87f964a520d64b1fe3","lat":34.07337363682478,"lng":-118.3817386288728,"venue":{"id":"4724cd87f964a520d64b1fe3","name":"A.O.C.","url":"https:\/\/foursquare.com\/v\/aoc\/4724cd87f964a520d64b1fe3"}},{"id":"5af44133a22db7002b0e936d","startTime":1525956788,"endTime":1525960406,"venueId":"50f4ae1be4b0afcceb376d42","lat":34.016663265536174,"lng":-118.49920666812056,"venue":{"id":"50f4ae1be4b0afcceb376d42","name":"SoulCycle Santa Monica","url":"https:\/\/foursquare.com\/v\/soulcycle-santa-monica\/50f4ae1be4b0afcceb376d42"}},{"id":"5af44133b9a5a8002c8f590c","startTime":1525956788,"endTime":1525960406,"venueId":"50f4ae1be4b0afcceb376d42","lat":34.016663265536174,"lng":-118.49920666812056,"venue":{"id":"50f4ae1be4b0afcceb376d42","name":"SoulCycle Santa Monica","url":"https:\/\/foursquare.com\/v\/soulcycle-santa-monica\/50f4ae1be4b0afcceb376d42"}},{"id":"5af39e50ad1789002c718825","startTime":1525915216,"endTime":1525919376,"venueId":"5666ef6a498e8aba88dc66d1","lat":34.02729758247585,"lng":-118.38787763094955,"venue":{"id":"5666ef6a498e8aba88dc66d1","name":"SoulCycle Culver City","url":"https:\/\/foursquare.com\/v\/soulcycle-culver-city\/5666ef6a498e8aba88dc66d1"}},{"id":"5af36332aa6c95002c59e1b9","startTime":1525899987,"endTime":1525901403,"venueId":"4b3fc18ff964a52007ae25e3","lat":34.07072960485459,"lng":-118.40274121081687,"venue":{"id":"4b3fc18ff964a52007ae25e3","name":"The Farm of Beverly Hills","url":"https:\/\/foursquare.com\/v\/the-farm-of-beverly-hills\/4b3fc18ff964a52007ae25e3"}},{"id":"5af36332780eee002c0bee46","startTime":1525899987,"endTime":1525901403,"venueId":"4b3fc18ff964a52007ae25e3","lat":34.07072960485459,"lng":-118.40274121081687,"venue":{"id":"4b3fc18ff964a52007ae25e3","name":"The Farm of Beverly Hills","url":"https:\/\/foursquare.com\/v\/the-farm-of-beverly-hills\/4b3fc18ff964a52007ae25e3"}},{"id":"5af354f02632ec002c7e41b9","startTime":1525896336,"endTime":1525899436,"venueId":"4b7b1602f964a5209d502fe3","lat":34.06957361469363,"lng":-118.40109157473343,"venue":{"id":"4b7b1602f964a5209d502fe3","name":"Cristophe Salon","url":"https:\/\/foursquare.com\/v\/cristophe-salon\/4b7b1602f964a5209d502fe3"}},{"id":"5af354eff79faa002c9512d8","startTime":1525896336,"endTime":1525899436,"venueId":"4b7b1602f964a5209d502fe3","lat":34.06957361469363,"lng":-118.40109157473343,"venue":{"id":"4b7b1602f964a5209d502fe3","name":"Cristophe Salon","url":"https:\/\/foursquare.com\/v\/cristophe-salon\/4b7b1602f964a5209d502fe3"}},{"id":"5af27802ad1789002c9faadb","startTime":1525839806,"endTime":1525840369,"venueId":"573e1e9a498ee6b4b93d8182","lat":34.02389674068463,"lng":-118.47971569702963,"venue":{"id":"573e1e9a498ee6b4b93d8182","name":"Metro Expo - 17th\/SMC Station","url":"https:\/\/foursquare.com\/v\/metro-expo--17thsmc-station\/573e1e9a498ee6b4b93d8182"}},{"id":"5af26fbd780eee002c08f95a","startTime":1525837733,"endTime":1525837942,"venueId":"4e55479218a8e7aa2cd80007","lat":34.018367185328536,"lng":-118.28611889328582,"venue":{"id":"4e55479218a8e7aa2cd80007","name":"Expo Park\/USC Metro Station","url":"https:\/\/foursquare.com\/v\/expo-parkusc-metro-station\/4e55479218a8e7aa2cd80007"}},{"id":"5af26fbc588e36002c8db2f9","startTime":1525837733,"endTime":1525837942,"venueId":"4e55479218a8e7aa2cd80007","lat":34.018367185328536,"lng":-118.28611889328582,"venue":{"id":"4e55479218a8e7aa2cd80007","name":"Expo Park\/USC Metro Station","url":"https:\/\/foursquare.com\/v\/expo-parkusc-metro-station\/4e55479218a8e7aa2cd80007"}},{"id":"5af24201780eee002c053594","startTime":1525825965,"endTime":1525837395,"venueId":"579ec9bf498e2f4296389fb6","lat":34.018913072932456,"lng":-118.28244809249907,"venue":{"id":"579ec9bf498e2f4296389fb6","name":"Fertitta Hall (JFF)","url":"https:\/\/foursquare.com\/v\/fertitta-hall-jff\/579ec9bf498e2f4296389fb6"}},{"id":"5af24201ee628b002c689b2d","startTime":1525825965,"endTime":1525837395,"venueId":"579ec9bf498e2f4296389fb6","lat":34.018913072932456,"lng":-118.28244809249907,"venue":{"id":"579ec9bf498e2f4296389fb6","name":"Fertitta Hall (JFF)","url":"https:\/\/foursquare.com\/v\/fertitta-hall-jff\/579ec9bf498e2f4296389fb6"}},{"id":"5af23215f79faa002c999354","startTime":1525821939,"endTime":1525825282,"venueId":"59f200173b83071d3b9a8902","lat":34.024905979603936,"lng":-118.28508003498112,"venue":{"id":"59f200173b83071d3b9a8902","name":"Greenleaf Chopshop","url":"https:\/\/foursquare.com\/v\/greenleaf-chopshop\/59f200173b83071d3b9a8902"}},{"id":"5af232154e8f4300240cf440","startTime":1525821939,"endTime":1525825282,"venueId":"59f200173b83071d3b9a8902","lat":34.024905979603936,"lng":-118.28508003498112,"venue":{"id":"59f200173b83071d3b9a8902","name":"Greenleaf Chopshop","url":"https:\/\/foursquare.com\/v\/greenleaf-chopshop\/59f200173b83071d3b9a8902"}},{"id":"5af205881c675b002c413d3a","startTime":1525810536,"endTime":1525813019,"venueId":"56d8c2eb498ef1500abce366","lat":34.07242656262888,"lng":-118.39535761463665,"venue":{"id":"56d8c2eb498ef1500abce366","name":"Avec Nous","url":"https:\/\/foursquare.com\/v\/avec-nous\/56d8c2eb498ef1500abce366"}},{"id":"5af205873d4791002c6a4368","startTime":1525810536,"endTime":1525813019,"venueId":"56d8c2eb498ef1500abce366","lat":34.07242656262888,"lng":-118.39535761463665,"venue":{"id":"56d8c2eb498ef1500abce366","name":"Avec Nous","url":"https:\/\/foursquare.com\/v\/avec-nous\/56d8c2eb498ef1500abce366"}},{"id":"5af1bdd54acb19002c7731ce","startTime":1525792212,"endTime":1525792248,"venueId":"512cf0bbe4b054700a0da69a","lat":34.040582688001614,"lng":-118.47310050046512,"venue":{"id":"512cf0bbe4b054700a0da69a","name":"Bristol Farms Santa Monica","url":"https:\/\/foursquare.com\/v\/bristol-farms-santa-monica\/512cf0bbe4b054700a0da69a"}},{"id":"5af1bdd5780eee002c2dc7e3","startTime":1525792212,"endTime":1525792248,"venueId":"512cf0bbe4b054700a0da69a","lat":34.040582688001614,"lng":-118.47310050046512,"venue":{"id":"512cf0bbe4b054700a0da69a","name":"Bristol Farms Santa Monica","url":"https:\/\/foursquare.com\/v\/bristol-farms-santa-monica\/512cf0bbe4b054700a0da69a"}},{"id":"5af1ac1f1f8ed6002c63c96c","startTime":1525787292,"endTime":1525791367,"venueId":"50f4ae1be4b0afcceb376d42","lat":34.016703244363526,"lng":-118.49920666812056,"venue":{"id":"50f4ae1be4b0afcceb376d42","name":"SoulCycle Santa Monica","url":"https:\/\/foursquare.com\/v\/soulcycle-santa-monica\/50f4ae1be4b0afcceb376d42"}},{"id":"5af1abe3b9a5a8002ce0e800","startTime":1525787292,"endTime":1525791367,"venueId":"50f4ae1be4b0afcceb376d42","lat":34.016703244363526,"lng":-118.49920666812056,"venue":{"id":"50f4ae1be4b0afcceb376d42","name":"SoulCycle Santa Monica","url":"https:\/\/foursquare.com\/v\/soulcycle-santa-monica\/50f4ae1be4b0afcceb376d42"}},{"id":"5af0d481054e29002cebce2e","startTime":1525732480,"endTime":1525733256,"venueId":"4ea1e90b7ee52a35dcab82d6","lat":34.074867812625534,"lng":-118.39423375507242,"venue":{"id":"4ea1e90b7ee52a35dcab82d6","name":"The Larder at Maple Drive","url":"https:\/\/foursquare.com\/v\/the-larder-at-maple-drive\/4ea1e90b7ee52a35dcab82d6"}},{"id":"5af0d481fe0e2a0024759387","startTime":1525732480,"endTime":1525733256,"venueId":"4ea1e90b7ee52a35dcab82d6","lat":34.074867812625534,"lng":-118.39423375507242,"venue":{"id":"4ea1e90b7ee52a35dcab82d6","name":"The Larder at Maple Drive","url":"https:\/\/foursquare.com\/v\/the-larder-at-maple-drive\/4ea1e90b7ee52a35dcab82d6"}},{"id":"5aef4b8875dcb7002c67068d","startTime":1525631859,"endTime":1525634828,"venueId":"4af2617af964a52090e721e3","lat":34.05358909988848,"lng":-118.46358793029817,"venue":{"id":"4af2617af964a52090e721e3","name":"Tavern Restaurant","url":"https:\/\/foursquare.com\/v\/tavern-restaurant\/4af2617af964a52090e721e3"}},{"id":"5aef4b88f79faa002cf539f4","startTime":1525631859,"endTime":1525634828,"venueId":"4af2617af964a52090e721e3","lat":34.05358909988848,"lng":-118.46358793029817,"venue":{"id":"4af2617af964a52090e721e3","name":"Tavern Restaurant","url":"https:\/\/foursquare.com\/v\/tavern-restaurant\/4af2617af964a52090e721e3"}},{"id":"5aef19d83af988003923bdf8","startTime":1525618076,"endTime":1525619906,"venueId":"50f4ae1be4b0afcceb376d42","lat":34.01685026718572,"lng":-118.49939403116659,"venue":{"id":"50f4ae1be4b0afcceb376d42","name":"SoulCycle Santa Monica","url":"https:\/\/foursquare.com\/v\/soulcycle-santa-monica\/50f4ae1be4b0afcceb376d42"}},{"id":"5aef19d8aa6c95002c8450a4","startTime":1525618076,"endTime":1525619906,"venueId":"50f4ae1be4b0afcceb376d42","lat":34.01685026718572,"lng":-118.49939403116659,"venue":{"id":"50f4ae1be4b0afcceb376d42","name":"SoulCycle Santa Monica","url":"https:\/\/foursquare.com\/v\/soulcycle-santa-monica\/50f4ae1be4b0afcceb376d42"}},{"id":"5aef1751be707800396695d6","startTime":1525618076,"endTime":1525619906,"venueId":"50f4ae1be4b0afcceb376d42","lat":34.01685026718572,"lng":-118.49939403116659,"venue":{"id":"50f4ae1be4b0afcceb376d42","name":"SoulCycle Santa Monica","url":"https:\/\/foursquare.com\/v\/soulcycle-santa-monica\/50f4ae1be4b0afcceb376d42"}},{"id":"5aef17510e5da8003288ce98","startTime":1525618076,"endTime":1525619906,"venueId":"50f4ae1be4b0afcceb376d42","lat":34.01685026718572,"lng":-118.49939403116659,"venue":{"id":"50f4ae1be4b0afcceb376d42","name":"SoulCycle Santa Monica","url":"https:\/\/foursquare.com\/v\/soulcycle-santa-monica\/50f4ae1be4b0afcceb376d42"}},{"id":"5aedf597dd8442002ca88058","startTime":1525544304,"endTime":1525549129,"venueId":"531168ef498ed0e38ca4c9f7","lat":34.028948543734536,"lng":-118.49877835165677,"venue":{"id":"531168ef498ed0e38ca4c9f7","name":"Art's Table","url":"https:\/\/foursquare.com\/v\/arts-table\/531168ef498ed0e38ca4c9f7"}},{"id":"5aedf5977269fe003997b215","startTime":1525544304,"endTime":1525548396,"venueId":"531168ef498ed0e38ca4c9f7","lat":34.028948543734536,"lng":-118.49877835165677,"venue":{"id":"531168ef498ed0e38ca4c9f7","name":"Art's Table","url":"https:\/\/foursquare.com\/v\/arts-table\/531168ef498ed0e38ca4c9f7"}},{"id":"5aedd3bbee628b002c89265e","startTime":1525535587,"endTime":1525540035,"venueId":"50f4ae1be4b0afcceb376d42","lat":34.0167895001236,"lng":-118.49945675274742,"venue":{"id":"50f4ae1be4b0afcceb376d42","name":"SoulCycle Santa Monica","url":"https:\/\/foursquare.com\/v\/soulcycle-santa-monica\/50f4ae1be4b0afcceb376d42"}},{"id":"5aedd3bb2f97ec002c601e05","startTime":1525535587,"endTime":1525543675,"venueId":"50f4ae1be4b0afcceb376d42","lat":34.0167895001236,"lng":-118.49945675274742,"venue":{"id":"50f4ae1be4b0afcceb376d42","name":"SoulCycle Santa Monica","url":"https:\/\/foursquare.com\/v\/soulcycle-santa-monica\/50f4ae1be4b0afcceb376d42"}},{"id":"5aecba08780eee002cf21afd","startTime":1525463473,"endTime":1525470619,"venueId":"4aac194ef964a5203d5c20e3","lat":34.06698043681639,"lng":-118.40236385966791,"venue":{"id":"4aac194ef964a5203d5c20e3","name":"Barney's New York","url":"https:\/\/foursquare.com\/v\/barneys-new-york\/4aac194ef964a5203d5c20e3"}},{"id":"5aecb61eee628b002c3d5e4e","startTime":1525462451,"endTime":1525463032,"venueId":"4f1605a8e4b0297e5ad48514","lat":34.06706518633842,"lng":-118.39776613356409,"venue":{"id":"4f1605a8e4b0297e5ad48514","name":"Rolex","url":"https:\/\/foursquare.com\/v\/rolex\/4f1605a8e4b0297e5ad48514"}},{"id":"5aecb4f5625a66002c260228","startTime":1525462260,"endTime":1525462451,"venueId":"4ba7fb2cf964a520eac339e3","lat":34.06685265604899,"lng":-118.39705798783989,"venue":{"id":"4ba7fb2cf964a520eac339e3","name":"Reeves Mini Park","url":"https:\/\/foursquare.com\/v\/reeves-mini-park\/4ba7fb2cf964a520eac339e3"}},{"id":"5aecb2d8588e36002ce43207","startTime":1525461719,"endTime":1525461908,"venueId":"4c3fdc1be26920a16d295ce7","lat":34.07108150201532,"lng":-118.39817055131593,"venue":{"id":"4c3fdc1be26920a16d295ce7","name":"Beverly Hills Sign","url":"https:\/\/foursquare.com\/v\/beverly-hills-sign\/4c3fdc1be26920a16d295ce7"}},{"id":"5aec914c1c675b002ca46964","startTime":1525453030,"endTime":1525454513,"venueId":"4f1605a8e4b0297e5ad48514","lat":34.067058935491126,"lng":-118.39782809115798,"venue":{"id":"4f1605a8e4b0297e5ad48514","name":"Rolex","url":"https:\/\/foursquare.com\/v\/rolex\/4f1605a8e4b0297e5ad48514"}},{"id":"5aec914c829b0c002c2b456b","startTime":1525453030,"endTime":1525454513,"venueId":"4f1605a8e4b0297e5ad48514","lat":34.067058935491126,"lng":-118.39782809115798,"venue":{"id":"4f1605a8e4b0297e5ad48514","name":"Rolex","url":"https:\/\/foursquare.com\/v\/rolex\/4f1605a8e4b0297e5ad48514"}},{"id":"5aec8e893af9880039734302","startTime":1525452413,"endTime":1525453030,"venueId":"4a63c64af964a520c9c51fe3","lat":34.067074965390596,"lng":-118.41429346727368,"venue":{"id":"4a63c64af964a520c9c51fe3","name":"The Beverly Hilton","url":"https:\/\/foursquare.com\/v\/the-beverly-hilton\/4a63c64af964a520c9c51fe3"}},{"id":"5aec8e8923a2e6002c7d4dcd","startTime":1525452413,"endTime":1525453030,"venueId":"4a63c64af964a520c9c51fe3","lat":34.067074965390596,"lng":-118.41429346727368,"venue":{"id":"4a63c64af964a520c9c51fe3","name":"The Beverly Hilton","url":"https:\/\/foursquare.com\/v\/the-beverly-hilton\/4a63c64af964a520c9c51fe3"}},{"id":"5aebc0250d0877001c84f6cd","startTime":1525399588,"endTime":1525402869,"venueId":"5ace3663f5e9d7488d79fbf7","lat":34.03724586237,"lng":-118.47496550651867,"venue":{"id":"5ace3663f5e9d7488d79fbf7","name":"Erewhon Natural Foods Market","url":"https:\/\/foursquare.com\/v\/erewhon-natural-foods-market\/5ace3663f5e9d7488d79fbf7"}},{"id":"5aebbc7b491be7002cb8611d","startTime":1525398550,"endTime":1525402869,"venueId":"4b42a4eaf964a52019d825e3","lat":34.03417365199005,"lng":-118.47307167423929,"venue":{"id":"4b42a4eaf964a52019d825e3","name":"McDonald's","url":"https:\/\/foursquare.com\/v\/mcdonalds\/4b42a4eaf964a52019d825e3"}},{"id":"5aebbc7bee628b002c4082eb","startTime":1525398550,"endTime":1525399100,"venueId":"4b42a4eaf964a52019d825e3","lat":34.03417365199005,"lng":-118.47307167423929,"venue":{"id":"4b42a4eaf964a52019d825e3","name":"McDonald's","url":"https:\/\/foursquare.com\/v\/mcdonalds\/4b42a4eaf964a52019d825e3"}},{"id":"5aeb6690872f7d0033d187f3","startTime":1525376626,"endTime":1525379319,"venueId":"4b3fc18ff964a52007ae25e3","lat":34.070720935681,"lng":-118.4027519527873,"venue":{"id":"4b3fc18ff964a52007ae25e3","name":"The Farm of Beverly Hills","url":"https:\/\/foursquare.com\/v\/the-farm-of-beverly-hills\/4b3fc18ff964a52007ae25e3"}},{"id":"5aeb66901f8ed6002c51b897","startTime":1525376626,"endTime":1525378706,"venueId":"4b3fc18ff964a52007ae25e3","lat":34.070720935681,"lng":-118.4027519527873,"venue":{"id":"4b3fc18ff964a52007ae25e3","name":"The Farm of Beverly Hills","url":"https:\/\/foursquare.com\/v\/the-farm-of-beverly-hills\/4b3fc18ff964a52007ae25e3"}},{"id":"5aeb16e6ee628b002cc8714c","startTime":1525356262,"endTime":1525356288,"venueId":"4f330e84e4b001a098569492","lat":34.041406549005266,"lng":-118.47645945656664,"venue":{"id":"4f330e84e4b001a098569492","name":"Dr Stephen Cook DDS","url":"https:\/\/foursquare.com\/v\/dr-stephen-cook-dds\/4f330e84e4b001a098569492"}},{"id":"5aeb16e6aa6c95002c9c745e","startTime":1525356262,"endTime":1525356288,"venueId":"4f330e84e4b001a098569492","lat":34.041406549005266,"lng":-118.47645945656664,"venue":{"id":"4f330e84e4b001a098569492","name":"Dr Stephen Cook DDS","url":"https:\/\/foursquare.com\/v\/dr-stephen-cook-dds\/4f330e84e4b001a098569492"}},{"id":"5aeb06257269fe00397b3f6d","startTime":1525351917,"endTime":1525355715,"venueId":"50f4ae1be4b0afcceb376d42","lat":34.016713185034234,"lng":-118.4992465819019,"venue":{"id":"50f4ae1be4b0afcceb376d42","name":"SoulCycle Santa Monica","url":"https:\/\/foursquare.com\/v\/soulcycle-santa-monica\/50f4ae1be4b0afcceb376d42"}},{"id":"5aeb0625be707800399cbb2b","startTime":1525351917,"endTime":1525356262,"venueId":"50f4ae1be4b0afcceb376d42","lat":34.016713185034234,"lng":-118.4992465819019,"venue":{"id":"50f4ae1be4b0afcceb376d42","name":"SoulCycle Santa Monica","url":"https:\/\/foursquare.com\/v\/soulcycle-santa-monica\/50f4ae1be4b0afcceb376d42"}},{"id":"5aea0eb1588e36002c87658c","startTime":1525288589,"endTime":1525351446,"venueId":"4cb51122f6616dcbb131d508","lat":34.06687997195088,"lng":-118.39772606169795,"venue":{"id":"4cb51122f6616dcbb131d508","name":"Beverly Hills Bar Association","url":"https:\/\/foursquare.com\/v\/beverly-hills-bar-association\/4cb51122f6616dcbb131d508"}},{"id":"5aea0eb1b37e2b002cdae4ff","startTime":1525288589,"endTime":1525291833,"venueId":"4cb51122f6616dcbb131d508","lat":34.06687997195088,"lng":-118.39772606169795,"venue":{"id":"4cb51122f6616dcbb131d508","name":"Beverly Hills Bar Association","url":"https:\/\/foursquare.com\/v\/beverly-hills-bar-association\/4cb51122f6616dcbb131d508"}},{"id":"5ae9c284588e36002c2e2550","startTime":1525268868,"endTime":1525273098,"venueId":"50f4ae1be4b0afcceb376d42","lat":34.01714712193952,"lng":-118.49827724448424,"venue":{"id":"50f4ae1be4b0afcceb376d42","name":"SoulCycle Santa Monica","url":"https:\/\/foursquare.com\/v\/soulcycle-santa-monica\/50f4ae1be4b0afcceb376d42"}},{"id":"5ae9c284be70780039b3c92f","startTime":1525268868,"endTime":1525273098,"venueId":"50f4ae1be4b0afcceb376d42","lat":34.01714712193952,"lng":-118.49827724448424,"venue":{"id":"50f4ae1be4b0afcceb376d42","name":"SoulCycle Santa Monica","url":"https:\/\/foursquare.com\/v\/soulcycle-santa-monica\/50f4ae1be4b0afcceb376d42"}},{"id":"5ae91b0448b04e002c82e2bf","startTime":1525226111,"endTime":1525237934,"venueId":"4b3d8e3ef964a5206f9525e3","lat":34.02622182130097,"lng":-118.45695457900922,"venue":{"id":"4b3d8e3ef964a5206f9525e3","name":"Valentino Italian Restaurant","url":"https:\/\/foursquare.com\/v\/valentino-italian-restaurant\/4b3d8e3ef964a5206f9525e3"}},{"id":"5ae91b04a22db7002cfb8e96","startTime":1525226111,"endTime":1525237934,"venueId":"4b3d8e3ef964a5206f9525e3","lat":34.02622182130097,"lng":-118.45695457900922,"venue":{"id":"4b3d8e3ef964a5206f9525e3","name":"Valentino Italian Restaurant","url":"https:\/\/foursquare.com\/v\/valentino-italian-restaurant\/4b3d8e3ef964a5206f9525e3"}},{"id":"5ae8f1cd5f68b90039cad67d","startTime":1525215693,"endTime":1525215875,"venueId":"4a95ddb8f964a5201f2520e3","lat":34.07101844580789,"lng":-118.40021326280731,"venue":{"id":"4a95ddb8f964a5201f2520e3","name":"Crescent Hotel Beverly Hills","url":"https:\/\/foursquare.com\/v\/crescent-hotel-beverly-hills\/4a95ddb8f964a5201f2520e3"}},{"id":"5ae8f1cd66f3cd002c07df35","startTime":1525215693,"endTime":1525215875,"venueId":"4a95ddb8f964a5201f2520e3","lat":34.07101844580789,"lng":-118.40021326280731,"venue":{"id":"4a95ddb8f964a5201f2520e3","name":"Crescent Hotel Beverly Hills","url":"https:\/\/foursquare.com\/v\/crescent-hotel-beverly-hills\/4a95ddb8f964a5201f2520e3"}},{"id":"5ae8ce434e8f430024e9ef11","startTime":1525206594,"endTime":1525208359,"venueId":"4f42b207e4b08cc3740aac5f","lat":34.06242713873096,"lng":-118.39919770472218,"venue":{"id":"4f42b207e4b08cc3740aac5f","name":"Burger Lounge Beverly Hills","url":"https:\/\/foursquare.com\/v\/burger-lounge-beverly-hills\/4f42b207e4b08cc3740aac5f"}},{"id":"5ae8ce437dc9e1002c2ac9c2","startTime":1525206594,"endTime":1525208359,"venueId":"4f42b207e4b08cc3740aac5f","lat":34.06242713873096,"lng":-118.39919770472218,"venue":{"id":"4f42b207e4b08cc3740aac5f","name":"Burger Lounge Beverly Hills","url":"https:\/\/foursquare.com\/v\/burger-lounge-beverly-hills\/4f42b207e4b08cc3740aac5f"}},{"id":"5ae874432db4a936a7469aee","startTime":1525183455,"endTime":1525189916,"venueId":"512cf0bbe4b054700a0da69a","lat":34.040473394077175,"lng":-118.47302115036311,"venue":{"id":"512cf0bbe4b054700a0da69a","name":"Bristol Farms Santa Monica","url":"https:\/\/foursquare.com\/v\/bristol-farms-santa-monica\/512cf0bbe4b054700a0da69a"}},{"id":"5ae87443a22db7002c2b6ec2","startTime":1525183455,"endTime":1525183995,"venueId":"512cf0bbe4b054700a0da69a","lat":34.040473394077175,"lng":-118.47302115036311,"venue":{"id":"512cf0bbe4b054700a0da69a","name":"Bristol Farms Santa Monica","url":"https:\/\/foursquare.com\/v\/bristol-farms-santa-monica\/512cf0bbe4b054700a0da69a"}},{"id":"5ae86339c0f163002c749783","startTime":1525179098,"endTime":1525182788,"venueId":"50f4ae1be4b0afcceb376d42","lat":34.0167005631689,"lng":-118.49923437612601,"venue":{"id":"50f4ae1be4b0afcceb376d42","name":"SoulCycle Santa Monica","url":"https:\/\/foursquare.com\/v\/soulcycle-santa-monica\/50f4ae1be4b0afcceb376d42"}},{"id":"5ae86338e727c4002e6cabf6","startTime":1525179098,"endTime":1525182788,"venueId":"50f4ae1be4b0afcceb376d42","lat":34.0167005631689,"lng":-118.49923437612601,"venue":{"id":"50f4ae1be4b0afcceb376d42","name":"SoulCycle Santa Monica","url":"https:\/\/foursquare.com\/v\/soulcycle-santa-monica\/50f4ae1be4b0afcceb376d42"}},{"id":"5ae7c68d1f8ed6002c61cdd6","startTime":1525139028,"endTime":1525139296,"venueId":"4287e280f964a5203f231fe3","lat":34.0588585581665,"lng":-118.4434029571498,"venue":{"id":"4287e280f964a5203f231fe3","name":"Hammer Museum","url":"https:\/\/foursquare.com\/v\/hammer-museum\/4287e280f964a5203f231fe3"}},{"id":"5ae7c68d0ee92a003969148a","startTime":1525139028,"endTime":1525139296,"venueId":"4287e280f964a5203f231fe3","lat":34.0588585581665,"lng":-118.4434029571498,"venue":{"id":"4287e280f964a5203f231fe3","name":"Hammer Museum","url":"https:\/\/foursquare.com\/v\/hammer-museum\/4287e280f964a5203f231fe3"}},{"id":"5ae7c38b4e8f4300241df6ca","startTime":1525138255,"endTime":1525182788,"venueId":"4d09195400e6b1f75a0711d7","lat":34.05983638573503,"lng":-118.44000910832663,"venue":{"id":"4d09195400e6b1f75a0711d7","name":"The Californian","url":"https:\/\/foursquare.com\/v\/the-californian\/4d09195400e6b1f75a0711d7"}},{"id":"5ae7c38b588e36234831801c","startTime":1525138255,"endTime":1525138658,"venueId":"4d09195400e6b1f75a0711d7","lat":34.05983638573503,"lng":-118.44000910832663,"venue":{"id":"4d09195400e6b1f75a0711d7","name":"The Californian","url":"https:\/\/foursquare.com\/v\/the-californian\/4d09195400e6b1f75a0711d7"}},{"id":"5ae77abd5f68b90039356b13","startTime":1525119648,"endTime":1525123848,"venueId":"5137c5afe4b097f9ccc87832","lat":34.068216979448245,"lng":-118.39852999332145,"venue":{"id":"5137c5afe4b097f9ccc87832","name":"SUGARFISH by sushi nozawa","url":"https:\/\/foursquare.com\/v\/sugarfish-by-sushi-nozawa\/5137c5afe4b097f9ccc87832"}},{"id":"5ae77abd67af3a002bdeb594","startTime":1525119648,"endTime":1525123848,"venueId":"5137c5afe4b097f9ccc87832","lat":34.068216979448245,"lng":-118.39852999332145,"venue":{"id":"5137c5afe4b097f9ccc87832","name":"SUGARFISH by sushi nozawa","url":"https:\/\/foursquare.com\/v\/sugarfish-by-sushi-nozawa\/5137c5afe4b097f9ccc87832"}},{"id":"5ae61a470d0877001c6e960f","startTime":1525029446,"endTime":1525030292,"venueId":"49e914d3f964a520c2651fe3","lat":34.031587762174716,"lng":-118.47345960264147,"venue":{"id":"49e914d3f964a520c2651fe3","name":"Helen's Cycles","url":"https:\/\/foursquare.com\/v\/helens-cycles\/49e914d3f964a520c2651fe3"}},{"id":"5ae61a47aa6c95434abf65d1","startTime":1525029446,"endTime":1525030292,"venueId":"49e914d3f964a520c2651fe3","lat":34.031587762174716,"lng":-118.47345960264147,"venue":{"id":"49e914d3f964a520c2651fe3","name":"Helen's Cycles","url":"https:\/\/foursquare.com\/v\/helens-cycles\/49e914d3f964a520c2651fe3"}},{"id":"5ae60dbbbcbf7a002c105dc8","startTime":1525026234,"endTime":1525029446,"venueId":"4a4ea9c9f964a520e0ae1fe3","lat":34.032010464072286,"lng":-118.49574504636526,"venue":{"id":"4a4ea9c9f964a520e0ae1fe3","name":"R+D Kitchen","url":"https:\/\/foursquare.com\/v\/rd-kitchen\/4a4ea9c9f964a520e0ae1fe3"}},{"id":"5ae60dbb588e362348118beb","startTime":1525026234,"endTime":1525028716,"venueId":"4a4ea9c9f964a520e0ae1fe3","lat":34.032010464072286,"lng":-118.49574504636526,"venue":{"id":"4a4ea9c9f964a520e0ae1fe3","name":"R+D Kitchen","url":"https:\/\/foursquare.com\/v\/rd-kitchen\/4a4ea9c9f964a520e0ae1fe3"}},{"id":"5ae5dbdc0ee92a003918c5d4","startTime":1525013379,"endTime":1525017459,"venueId":"50f4ae1be4b0afcceb376d42","lat":34.01680457283971,"lng":-118.49924087993371,"venue":{"id":"50f4ae1be4b0afcceb376d42","name":"SoulCycle Santa Monica","url":"https:\/\/foursquare.com\/v\/soulcycle-santa-monica\/50f4ae1be4b0afcceb376d42"}},{"id":"5ae5dbdc65cdf8002c99d95e","startTime":1525013379,"endTime":1525018011,"venueId":"50f4ae1be4b0afcceb376d42","lat":34.01680457283971,"lng":-118.49924087993371,"venue":{"id":"50f4ae1be4b0afcceb376d42","name":"SoulCycle Santa Monica","url":"https:\/\/foursquare.com\/v\/soulcycle-santa-monica\/50f4ae1be4b0afcceb376d42"}},{"id":"5ae4c76abcbf7a002c2d9fda","startTime":1524942697,"endTime":1524943620,"venueId":"4c34c6a7213c2d7f450f395d","lat":34.031398814862115,"lng":-118.49618980870723,"venue":{"id":"4c34c6a7213c2d7f450f395d","name":"Artistic Nails","url":"https:\/\/foursquare.com\/v\/artistic-nails\/4c34c6a7213c2d7f450f395d"}},{"id":"5ae4c76ab9a5a87a7cbe1d0f","startTime":1524942697,"endTime":1524943620,"venueId":"4c34c6a7213c2d7f450f395d","lat":34.031398814862115,"lng":-118.49618980870723,"venue":{"id":"4c34c6a7213c2d7f450f395d","name":"Artistic Nails","url":"https:\/\/foursquare.com\/v\/artistic-nails\/4c34c6a7213c2d7f450f395d"}},{"id":"5ae4bab6588e36002c005b41","startTime":1524939445,"endTime":1524942332,"venueId":"531168ef498ed0e38ca4c9f7","lat":34.0290982539162,"lng":-118.49881880010254,"venue":{"id":"531168ef498ed0e38ca4c9f7","name":"Art's Table","url":"https:\/\/foursquare.com\/v\/arts-table\/531168ef498ed0e38ca4c9f7"}},{"id":"5ae4bab6cf72a0002c91e547","startTime":1524939445,"endTime":1524942332,"venueId":"531168ef498ed0e38ca4c9f7","lat":34.0290982539162,"lng":-118.49881880010254,"venue":{"id":"531168ef498ed0e38ca4c9f7","name":"Art's Table","url":"https:\/\/foursquare.com\/v\/arts-table\/531168ef498ed0e38ca4c9f7"}},{"id":"5ae498bda9e40200392baa6e","startTime":1524930648,"endTime":1524935241,"venueId":"50f4ae1be4b0afcceb376d42","lat":34.01681727634751,"lng":-118.49934921729525,"venue":{"id":"50f4ae1be4b0afcceb376d42","name":"SoulCycle Santa Monica","url":"https:\/\/foursquare.com\/v\/soulcycle-santa-monica\/50f4ae1be4b0afcceb376d42"}},{"id":"5ae498bdee628b038710260e","startTime":1524930648,"endTime":1524935241,"venueId":"50f4ae1be4b0afcceb376d42","lat":34.01681727634751,"lng":-118.49934921729525,"venue":{"id":"50f4ae1be4b0afcceb376d42","name":"SoulCycle Santa Monica","url":"https:\/\/foursquare.com\/v\/soulcycle-santa-monica\/50f4ae1be4b0afcceb376d42"}},{"id":"5ae381cd75dcb7002c0ea93b","startTime":1524859330,"endTime":1524862971,"venueId":"4f874edae4b05ae886e6de45","lat":34.06827210620084,"lng":-118.40022503012267,"venue":{"id":"4f874edae4b05ae886e6de45","name":"Yojisan","url":"https:\/\/foursquare.com\/v\/yojisan\/4f874edae4b05ae886e6de45"}},{"id":"5ae381c3088158002c6d1c70","startTime":1524859330,"endTime":1524877048,"venueId":"4f874edae4b05ae886e6de45","lat":34.06827210620084,"lng":-118.40022503012267,"venue":{"id":"4f874edae4b05ae886e6de45","name":"Yojisan","url":"https:\/\/foursquare.com\/v\/yojisan\/4f874edae4b05ae886e6de45"}},{"id":"5ae285bf780eee4790bb6025","startTime":1524794805,"endTime":1524797890,"venueId":"5ace3663f5e9d7488d79fbf7","lat":34.03716367772855,"lng":-118.47499393143659,"venue":{"id":"5ace3663f5e9d7488d79fbf7","name":"Erewhon Natural Foods Market","url":"https:\/\/foursquare.com\/v\/erewhon-natural-foods-market\/5ace3663f5e9d7488d79fbf7"}},{"id":"5ae285bf588e362348815903","startTime":1524794805,"endTime":1524797890,"venueId":"5ace3663f5e9d7488d79fbf7","lat":34.03716367772855,"lng":-118.47499393143659,"venue":{"id":"5ace3663f5e9d7488d79fbf7","name":"Erewhon Natural Foods Market","url":"https:\/\/foursquare.com\/v\/erewhon-natural-foods-market\/5ace3663f5e9d7488d79fbf7"}},{"id":"5ae25bf3bcbf7a1f98ef5097","startTime":1524784044,"endTime":1524784259,"venueId":"439ec330f964a520102c1fe3","lat":33.94672883560212,"lng":-118.40806415155055,"venue":{"id":"439ec330f964a520102c1fe3","name":"Los Angeles International Airport (LAX)","url":"https:\/\/foursquare.com\/v\/los-angeles-international-airport-lax\/439ec330f964a520102c1fe3"}},{"id":"5ae25bf3e1f228709ea495ba","startTime":1524784044,"endTime":1524784259,"venueId":"439ec330f964a520102c1fe3","lat":33.94672883560212,"lng":-118.40806415155055,"venue":{"id":"439ec330f964a520102c1fe3","name":"Los Angeles International Airport (LAX)","url":"https:\/\/foursquare.com\/v\/los-angeles-international-airport-lax\/439ec330f964a520102c1fe3"}},{"id":"5ae2420bba57b43ee45b1977","startTime":1524777483,"endTime":1524783407,"venueId":"58435c28528930609dda877d","lat":37.71119232178386,"lng":-122.21578684290013,"venue":{"id":"58435c28528930609dda877d","name":"Escape Lounge","url":"https:\/\/foursquare.com\/v\/escape-lounge\/58435c28528930609dda877d"}},{"id":"5ae2420bee628b7cdb75d180","startTime":1524777483,"endTime":1524783407,"venueId":"58435c28528930609dda877d","lat":37.71119232178386,"lng":-122.21578684290013,"venue":{"id":"58435c28528930609dda877d","name":"Escape Lounge","url":"https:\/\/foursquare.com\/v\/escape-lounge\/58435c28528930609dda877d"}},{"id":"5ae23e9ac0af575d421ddda2","startTime":1524776576,"endTime":1524776875,"venueId":"4493522af964a5207c341fe3","lat":37.71225879404118,"lng":-122.2143849051386,"venue":{"id":"4493522af964a5207c341fe3","name":"Oakland International Airport (OAK)","url":"https:\/\/foursquare.com\/v\/oakland-international-airport-oak\/4493522af964a5207c341fe3"}},{"id":"5ae23e9aa89b5a6d9c8c92d7","startTime":1524776576,"endTime":1524776872,"venueId":"4493522af964a5207c341fe3","lat":37.71225879404118,"lng":-122.2143849051386,"venue":{"id":"4493522af964a5207c341fe3","name":"Oakland International Airport (OAK)","url":"https:\/\/foursquare.com\/v\/oakland-international-airport-oak\/4493522af964a5207c341fe3"}},{"id":"5ae2218c780eee4338737b07","startTime":1524769122,"endTime":1524770790,"venueId":"4abaa087f964a520278220e3","lat":38.29605171802611,"lng":-122.28257090731967,"venue":{"id":"4abaa087f964a520278220e3","name":"Napa General Store Restaurant","url":"https:\/\/foursquare.com\/v\/napa-general-store-restaurant\/4abaa087f964a520278220e3"}},{"id":"5ae221630ff4f901351693eb","startTime":1524769122,"endTime":1524776872,"venueId":"4abaa087f964a520278220e3","lat":38.29605171802611,"lng":-122.28257090731967,"venue":{"id":"4abaa087f964a520278220e3","name":"Napa General Store Restaurant","url":"https:\/\/foursquare.com\/v\/napa-general-store-restaurant\/4abaa087f964a520278220e3"}},{"id":"5ae21b8b65cdf86987bfa89e","startTime":1524767586,"endTime":1524768270,"venueId":"5198422b498e6cc0788e1a86","lat":38.30478910428451,"lng":-122.28630324400285,"venue":{"id":"5198422b498e6cc0788e1a86","name":"St. Clair Brown Winery","url":"https:\/\/foursquare.com\/v\/st-clair-brown-winery\/5198422b498e6cc0788e1a86"}},{"id":"5ae21b8baa6c95434aea6572","startTime":1524767586,"endTime":1524768270,"venueId":"5198422b498e6cc0788e1a86","lat":38.30478910428451,"lng":-122.28630324400285,"venue":{"id":"5198422b498e6cc0788e1a86","name":"St. Clair Brown Winery","url":"https:\/\/foursquare.com\/v\/st-clair-brown-winery\/5198422b498e6cc0788e1a86"}},{"id":"5ae21913018cbb3130173929","startTime":1524766994,"endTime":1524767326,"venueId":"5064dcc7e4b01981bb6a7a00","lat":38.29927176483975,"lng":-122.28569398103224,"venue":{"id":"5064dcc7e4b01981bb6a7a00","name":"Starbucks","url":"https:\/\/foursquare.com\/v\/starbucks\/5064dcc7e4b01981bb6a7a00"}},{"id":"5ae2191369e77b7a09454fbe","startTime":1524766994,"endTime":1524767326,"venueId":"5064dcc7e4b01981bb6a7a00","lat":38.29927176483975,"lng":-122.28569398103224,"venue":{"id":"5064dcc7e4b01981bb6a7a00","name":"Starbucks","url":"https:\/\/foursquare.com\/v\/starbucks\/5064dcc7e4b01981bb6a7a00"}},{"id":"5ae16122e65d0c772828b62f","startTime":1524719906,"endTime":1524766690,"venueId":"4ae485c2f964a520409b21e3","lat":38.29644329143936,"lng":-122.28289244260972,"venue":{"id":"4ae485c2f964a520409b21e3","name":"Napa River Inn","url":"https:\/\/foursquare.com\/v\/napa-river-inn\/4ae485c2f964a520409b21e3"}},{"id":"5ae16122491be75fa9cda02b","startTime":1524719906,"endTime":1524766690,"venueId":"4ae485c2f964a520409b21e3","lat":38.29644329143936,"lng":-122.28289244260972,"venue":{"id":"4ae485c2f964a520409b21e3","name":"Napa River Inn","url":"https:\/\/foursquare.com\/v\/napa-river-inn\/4ae485c2f964a520409b21e3"}},{"id":"5ae13342780eee4338beba4c","startTime":1524708160,"endTime":1524718386,"venueId":"4b634db6f964a520df702ae3","lat":38.41571180344314,"lng":-122.38569997393982,"venue":{"id":"4b634db6f964a520df702ae3","name":"Brix Restaurant and Gardens","url":"https:\/\/foursquare.com\/v\/brix-restaurant-and-gardens\/4b634db6f964a520df702ae3"}},{"id":"5ae13342805e3f2fe853836b","startTime":1524708160,"endTime":1524718386,"venueId":"4b634db6f964a520df702ae3","lat":38.41571180344314,"lng":-122.38569997393982,"venue":{"id":"4b634db6f964a520df702ae3","name":"Brix Restaurant and Gardens","url":"https:\/\/foursquare.com\/v\/brix-restaurant-and-gardens\/4b634db6f964a520df702ae3"}},{"id":"5ae1272c2db4a936a73e21ec","startTime":1524704996,"endTime":1524766690,"venueId":"4ae485c2f964a520409b21e3","lat":38.29637625221432,"lng":-122.28314177023407,"venue":{"id":"4ae485c2f964a520409b21e3","name":"Napa River Inn","url":"https:\/\/foursquare.com\/v\/napa-river-inn\/4ae485c2f964a520409b21e3"}},{"id":"5ae1272c46e1b65d09fc2730","startTime":1524704996,"endTime":1524706409,"venueId":"4ae485c2f964a520409b21e3","lat":38.29637625221432,"lng":-122.28314177023407,"venue":{"id":"4ae485c2f964a520409b21e3","name":"Napa River Inn","url":"https:\/\/foursquare.com\/v\/napa-river-inn\/4ae485c2f964a520409b21e3"}},{"id":"5ae0fba0898bdc352fb908ba","startTime":1524693769,"endTime":1524704722,"venueId":"441800f8f964a52013311fe3","lat":38.30247941695765,"lng":-122.28061022188923,"venue":{"id":"441800f8f964a52013311fe3","name":"Copia","url":"https:\/\/foursquare.com\/v\/copia\/441800f8f964a52013311fe3"}},{"id":"5ae0fba01f8ed61a013ee943","startTime":1524693769,"endTime":1524704722,"venueId":"441800f8f964a52013311fe3","lat":38.30247941695765,"lng":-122.28061022188923,"venue":{"id":"441800f8f964a52013311fe3","name":"Copia","url":"https:\/\/foursquare.com\/v\/copia\/441800f8f964a52013311fe3"}},{"id":"5ae0ea4e2db4a936a722f704","startTime":1524689377,"endTime":1524704722,"venueId":"55c69259498e156e9a656072","lat":38.26055508239095,"lng":-122.2744026246262,"venue":{"id":"55c69259498e156e9a656072","name":"Crosby Roamann","url":"https:\/\/foursquare.com\/v\/crosby-roamann\/55c69259498e156e9a656072"}},{"id":"5ae0ea4e898bdc352faf5b8c","startTime":1524689377,"endTime":1524692913,"venueId":"55c69259498e156e9a656072","lat":38.26055508239095,"lng":-122.2744026246262,"venue":{"id":"55c69259498e156e9a656072","name":"Crosby Roamann","url":"https:\/\/foursquare.com\/v\/crosby-roamann\/55c69259498e156e9a656072"}},{"id":"5ae0e07c829b0c4fe1ed5e45","startTime":1524686971,"endTime":1524704722,"venueId":"4df1903d1f6e818dadf8be87","lat":38.30184187192367,"lng":-122.28193389077751,"venue":{"id":"4df1903d1f6e818dadf8be87","name":"The Kitchen Door","url":"https:\/\/foursquare.com\/v\/the-kitchen-door\/4df1903d1f6e818dadf8be87"}},{"id":"5ae0e07c872f7d41853a8591","startTime":1524686971,"endTime":1524688580,"venueId":"4df1903d1f6e818dadf8be87","lat":38.30184187192367,"lng":-122.28193389077751,"venue":{"id":"4df1903d1f6e818dadf8be87","name":"The Kitchen Door","url":"https:\/\/foursquare.com\/v\/the-kitchen-door\/4df1903d1f6e818dadf8be87"}},{"id":"5ae0da5797461722ae0d0465","startTime":1524685398,"endTime":1524686366,"venueId":"4b512b56f964a520ba4527e3","lat":38.301820353312856,"lng":-122.28177917876775,"venue":{"id":"4b512b56f964a520ba4527e3","name":"Hog Island Oyster Co.","url":"https:\/\/foursquare.com\/v\/hog-island-oyster-co\/4b512b56f964a520ba4527e3"}},{"id":"5ae0da57780eee554b70d694","startTime":1524685398,"endTime":1524686366,"venueId":"4b512b56f964a520ba4527e3","lat":38.301820353312856,"lng":-122.28177917876775,"venue":{"id":"4b512b56f964a520ba4527e3","name":"Hog Island Oyster Co.","url":"https:\/\/foursquare.com\/v\/hog-island-oyster-co\/4b512b56f964a520ba4527e3"}},{"id":"5ae0ca29ee628b03876e589e","startTime":1524681256,"endTime":1524684793,"venueId":"4a2adcf2f964a5205f961fe3","lat":38.30114786371648,"lng":-122.2817400680898,"venue":{"id":"4a2adcf2f964a5205f961fe3","name":"Gott's Roadside","url":"https:\/\/foursquare.com\/v\/gotts-roadside\/4a2adcf2f964a5205f961fe3"}},{"id":"5ae0ca29da2e002673bcb984","startTime":1524681256,"endTime":1524684793,"venueId":"4a2adcf2f964a5205f961fe3","lat":38.30114786371648,"lng":-122.2817400680898,"venue":{"id":"4a2adcf2f964a5205f961fe3","name":"Gott's Roadside","url":"https:\/\/foursquare.com\/v\/gotts-roadside\/4a2adcf2f964a5205f961fe3"}},{"id":"5ae0c380780eee406e7d14c4","startTime":1524679417,"endTime":1524680704,"venueId":"4ae485c2f964a520409b21e3","lat":38.29639433489288,"lng":-122.28314099149173,"venue":{"id":"4ae485c2f964a520409b21e3","name":"Napa River Inn","url":"https:\/\/foursquare.com\/v\/napa-river-inn\/4ae485c2f964a520409b21e3"}},{"id":"5ae0c380780eee406e7d14f1","startTime":1524679408,"endTime":1524680704,"venueId":"4ae485c2f964a520409b21e3","lat":38.29639433489288,"lng":-122.28314099149173,"venue":{"id":"4ae485c2f964a520409b21e3","name":"Napa River Inn","url":"https:\/\/foursquare.com\/v\/napa-river-inn\/4ae485c2f964a520409b21e3"}},{"id":"5ae0b17faa6c95434aee998e","startTime":1524674940,"endTime":1524675482,"venueId":"4493522af964a5207c341fe3","lat":37.71378338965589,"lng":-122.21242915744203,"venue":{"id":"4493522af964a5207c341fe3","name":"Oakland International Airport (OAK)","url":"https:\/\/foursquare.com\/v\/oakland-international-airport-oak\/4493522af964a5207c341fe3"}},{"id":"5ae0933e6a59504b38f813d8","startTime":1524667170,"endTime":1524674037,"venueId":"592492dea5a315116e189031","lat":33.946653266651104,"lng":-118.40738484241587,"venue":{"id":"592492dea5a315116e189031","name":"Delta Sky Club Terminal 3","url":"https:\/\/foursquare.com\/v\/delta-sky-club-terminal-3\/592492dea5a315116e189031"}},{"id":"5ae0933ee65d0c7728ac7cab","startTime":1524667170,"endTime":1524674037,"venueId":"592492dea5a315116e189031","lat":33.946653266651104,"lng":-118.40738484241587,"venue":{"id":"592492dea5a315116e189031","name":"Delta Sky Club Terminal 3","url":"https:\/\/foursquare.com\/v\/delta-sky-club-terminal-3\/592492dea5a315116e189031"}},{"id":"5ae0905e1fa7633edb8a908f","startTime":1524666362,"endTime":1524666552,"venueId":"4d4974eb7d36f04d67de11e5","lat":33.94516902775524,"lng":-118.40725973085328,"venue":{"id":"4d4974eb7d36f04d67de11e5","name":"TSA Passenger Screening","url":"https:\/\/foursquare.com\/v\/tsa-passenger-screening\/4d4974eb7d36f04d67de11e5"}},{"id":"5ae0905ec0f16320cdaf5435","startTime":1524666362,"endTime":1524666552,"venueId":"4d4974eb7d36f04d67de11e5","lat":33.94516902775524,"lng":-118.40725973085328,"venue":{"id":"4d4974eb7d36f04d67de11e5","name":"TSA Passenger Screening","url":"https:\/\/foursquare.com\/v\/tsa-passenger-screening\/4d4974eb7d36f04d67de11e5"}},{"id":"5adffb19ad178964b74bdcf9","startTime":1524628188,"endTime":1524628294,"venueId":"4e55479218a8e7aa2cd80007","lat":34.0182517231697,"lng":-118.2861186702694,"venue":{"id":"4e55479218a8e7aa2cd80007","name":"Expo Park\/USC Metro Station","url":"https:\/\/foursquare.com\/v\/expo-parkusc-metro-station\/4e55479218a8e7aa2cd80007"}},{"id":"5adffb196a59504b3884e3cc","startTime":1524628188,"endTime":1524628294,"venueId":"4e55479218a8e7aa2cd80007","lat":34.0182517231697,"lng":-118.2861186702694,"venue":{"id":"4e55479218a8e7aa2cd80007","name":"Expo Park\/USC Metro Station","url":"https:\/\/foursquare.com\/v\/expo-parkusc-metro-station\/4e55479218a8e7aa2cd80007"}},{"id":"5adfd2dd588e3662b561aadf","startTime":1524617837,"endTime":1524627945,"venueId":"579ec9bf498e2f4296389fb6","lat":34.01887177157765,"lng":-118.28239019617652,"venue":{"id":"579ec9bf498e2f4296389fb6","name":"Fertitta Hall (JFF)","url":"https:\/\/foursquare.com\/v\/fertitta-hall-jff\/579ec9bf498e2f4296389fb6"}},{"id":"5adfc58a780eee593af987a6","startTime":1524614462,"endTime":1524617183,"venueId":"4bc4dc8cabf4952125aec593","lat":34.0245247918831,"lng":-118.28795181086288,"venue":{"id":"4bc4dc8cabf4952125aec593","name":"King Olympic Hall (KOH)","url":"https:\/\/foursquare.com\/v\/king-olympic-hall-koh\/4bc4dc8cabf4952125aec593"}},{"id":"5adfc58a838e596a232cbe16","startTime":1524614462,"endTime":1524617183,"venueId":"4bc4dc8cabf4952125aec593","lat":34.0245247918831,"lng":-118.28795181086288,"venue":{"id":"4bc4dc8cabf4952125aec593","name":"King Olympic Hall (KOH)","url":"https:\/\/foursquare.com\/v\/king-olympic-hall-koh\/4bc4dc8cabf4952125aec593"}},{"id":"5adf398e180b91416b9aeda3","startTime":1524578702,"endTime":1524578743,"venueId":"512cf0bbe4b054700a0da69a","lat":34.0401965318242,"lng":-118.47354550190528,"venue":{"id":"512cf0bbe4b054700a0da69a","name":"Bristol Farms Santa Monica","url":"https:\/\/foursquare.com\/v\/bristol-farms-santa-monica\/512cf0bbe4b054700a0da69a"}},{"id":"5adf398ee727c44ed168af79","startTime":1524578702,"endTime":1524578743,"venueId":"512cf0bbe4b054700a0da69a","lat":34.0401965318242,"lng":-118.47354550190528,"venue":{"id":"512cf0bbe4b054700a0da69a","name":"Bristol Farms Santa Monica","url":"https:\/\/foursquare.com\/v\/bristol-farms-santa-monica\/512cf0bbe4b054700a0da69a"}},{"id":"5adf28cc838e596dc373b14d","startTime":1524574320,"endTime":1524577978,"venueId":"50f4ae1be4b0afcceb376d42","lat":34.016698937764865,"lng":-118.49922377402804,"venue":{"id":"50f4ae1be4b0afcceb376d42","name":"SoulCycle Santa Monica","url":"https:\/\/foursquare.com\/v\/soulcycle-santa-monica\/50f4ae1be4b0afcceb376d42"}},{"id":"5adf28ccba57b4439448ddf3","startTime":1524574320,"endTime":1524577978,"venueId":"50f4ae1be4b0afcceb376d42","lat":34.016698937764865,"lng":-118.49922377402804,"venue":{"id":"50f4ae1be4b0afcceb376d42","name":"SoulCycle Santa Monica","url":"https:\/\/foursquare.com\/v\/soulcycle-santa-monica\/50f4ae1be4b0afcceb376d42"}},{"id":"5ade6d6e588e360c344d9d89","startTime":1524526446,"endTime":1524529199,"venueId":"4a721daaf964a52064da1fe3","lat":34.03236963174773,"lng":-118.4951520280463,"venue":{"id":"4a721daaf964a52064da1fe3","name":"Peet's Coffee & Tea","url":"https:\/\/foursquare.com\/v\/peets-coffee--tea\/4a721daaf964a52064da1fe3"}},{"id":"5ade6d6e0ee92a6a78e79422","startTime":1524526446,"endTime":1524528777,"venueId":"4a721daaf964a52064da1fe3","lat":34.03236963174773,"lng":-118.4951520280463,"venue":{"id":"4a721daaf964a52064da1fe3","name":"Peet's Coffee & Tea","url":"https:\/\/foursquare.com\/v\/peets-coffee--tea\/4a721daaf964a52064da1fe3"}},{"id":"5ade3e2bbcbf7a5e36c1cd33","startTime":1524514275,"endTime":1524516652,"venueId":"4bcbcfe9511f95213437b2c7","lat":34.066144264707354,"lng":-118.39912322249421,"venue":{"id":"4bcbcfe9511f95213437b2c7","name":"South Beverly Grill","url":"https:\/\/foursquare.com\/v\/south-beverly-grill\/4bcbcfe9511f95213437b2c7"}},{"id":"5ade3e29018cbb032e96344e","startTime":1524514275,"endTime":1524516652,"venueId":"4bcbcfe9511f95213437b2c7","lat":34.066144264707354,"lng":-118.39912322249421,"venue":{"id":"4bcbcfe9511f95213437b2c7","name":"South Beverly Grill","url":"https:\/\/foursquare.com\/v\/south-beverly-grill\/4bcbcfe9511f95213437b2c7"}},{"id":"5ade1ad1838e596dc385ff78","startTime":1524505219,"endTime":1524507703,"venueId":"4ea1e90b7ee52a35dcab82d6","lat":34.075038640348296,"lng":-118.39421160141707,"venue":{"id":"4ea1e90b7ee52a35dcab82d6","name":"The Larder at Maple Drive","url":"https:\/\/foursquare.com\/v\/the-larder-at-maple-drive\/4ea1e90b7ee52a35dcab82d6"}},{"id":"5ade1ad1dd844251336e7247","startTime":1524505219,"endTime":1524507703,"venueId":"4ea1e90b7ee52a35dcab82d6","lat":34.075038640348296,"lng":-118.39421160141707,"venue":{"id":"4ea1e90b7ee52a35dcab82d6","name":"The Larder at Maple Drive","url":"https:\/\/foursquare.com\/v\/the-larder-at-maple-drive\/4ea1e90b7ee52a35dcab82d6"}},{"id":"5adcd66b88a48b4f5ac7b6b4","startTime":1524422251,"endTime":1524494985,"venueId":"5562a280498e8dcda03ba194","lat":34.0339794483311,"lng":-118.49272843555838,"venue":{"id":"5562a280498e8dcda03ba194","name":"Forma Restaurant & Cheese Bar","url":"https:\/\/foursquare.com\/v\/forma-restaurant--cheese-bar\/5562a280498e8dcda03ba194"}},{"id":"5adcd66b46e1b663af5ebacf","startTime":1524422251,"endTime":1524494985,"venueId":"5562a280498e8dcda03ba194","lat":34.0339794483311,"lng":-118.49272843555838,"venue":{"id":"5562a280498e8dcda03ba194","name":"Forma Restaurant & Cheese Bar","url":"https:\/\/foursquare.com\/v\/forma-restaurant--cheese-bar\/5562a280498e8dcda03ba194"}},{"id":"5adca211c0af570d2d428068","startTime":1524408759,"endTime":1524412659,"venueId":"50f4ae1be4b0afcceb376d42","lat":34.01636042905344,"lng":-118.4989378734982,"venue":{"id":"50f4ae1be4b0afcceb376d42","name":"SoulCycle Santa Monica","url":"https:\/\/foursquare.com\/v\/soulcycle-santa-monica\/50f4ae1be4b0afcceb376d42"}},{"id":"5adca211829b0c4a6da97353","startTime":1524408759,"endTime":1524412659,"venueId":"50f4ae1be4b0afcceb376d42","lat":34.01636042905344,"lng":-118.4989378734982,"venue":{"id":"50f4ae1be4b0afcceb376d42","name":"SoulCycle Santa Monica","url":"https:\/\/foursquare.com\/v\/soulcycle-santa-monica\/50f4ae1be4b0afcceb376d42"}},{"id":"5adb831fa22db7728f400113","startTime":1524335390,"endTime":1524337094,"venueId":"531168ef498ed0e38ca4c9f7","lat":34.029138812341955,"lng":-118.49865896631853,"venue":{"id":"531168ef498ed0e38ca4c9f7","name":"Art's Table","url":"https:\/\/foursquare.com\/v\/arts-table\/531168ef498ed0e38ca4c9f7"}},{"id":"5adb831fdd84425133cf4317","startTime":1524335390,"endTime":1524337094,"venueId":"531168ef498ed0e38ca4c9f7","lat":34.029138812341955,"lng":-118.49865896631853,"venue":{"id":"531168ef498ed0e38ca4c9f7","name":"Art's Table","url":"https:\/\/foursquare.com\/v\/arts-table\/531168ef498ed0e38ca4c9f7"}},{"id":"5adb5e52da2e000a9fbdef0e","startTime":1524325969,"endTime":1524330546,"venueId":"50f4ae1be4b0afcceb376d42","lat":34.01667329443925,"lng":-118.49999910633196,"venue":{"id":"50f4ae1be4b0afcceb376d42","name":"SoulCycle Santa Monica","url":"https:\/\/foursquare.com\/v\/soulcycle-santa-monica\/50f4ae1be4b0afcceb376d42"}},{"id":"5adb5e52dd84425133970dd9","startTime":1524325969,"endTime":1524330546,"venueId":"50f4ae1be4b0afcceb376d42","lat":34.01667329443925,"lng":-118.49999910633196,"venue":{"id":"50f4ae1be4b0afcceb376d42","name":"SoulCycle Santa Monica","url":"https:\/\/foursquare.com\/v\/soulcycle-santa-monica\/50f4ae1be4b0afcceb376d42"}},{"id":"5ada187dcf72a07e26a37585","startTime":1524242556,"endTime":1524242683,"venueId":"4b873fbdf964a52080b831e3","lat":34.06640546825991,"lng":-118.41596539136376,"venue":{"id":"4b873fbdf964a52080b831e3","name":"76","url":"https:\/\/foursquare.com\/v\/76\/4b873fbdf964a52080b831e3"}},{"id":"5ada187d4e8f437b4e0e216b","startTime":1524242556,"endTime":1524242683,"venueId":"4b873fbdf964a52080b831e3","lat":34.06640546825991,"lng":-118.41596539136376,"venue":{"id":"4b873fbdf964a52080b831e3","name":"76","url":"https:\/\/foursquare.com\/v\/76\/4b873fbdf964a52080b831e3"}},{"id":"5ad946a9dd844251335db243","startTime":1524188840,"endTime":1524193484,"venueId":"5ace3663f5e9d7488d79fbf7","lat":34.03719784502916,"lng":-118.47543273491863,"venue":{"id":"5ace3663f5e9d7488d79fbf7","name":"Erewhon Natural Foods Market","url":"https:\/\/foursquare.com\/v\/erewhon-natural-foods-market\/5ace3663f5e9d7488d79fbf7"}},{"id":"5ad945f8c0af570d2dc1e2d3","startTime":1524188663,"endTime":1524188840,"venueId":"4bbb65227421a59351c5c440","lat":34.037045855475874,"lng":-118.47575801635165,"venue":{"id":"4bbb65227421a59351c5c440","name":"2730 Wilshire","url":"https:\/\/foursquare.com\/v\/2730-wilshire\/4bbb65227421a59351c5c440"}},{"id":"5ad8f655ad178945ec8efd9e","startTime":1524168276,"endTime":1524172905,"venueId":"42893400f964a52068231fe3","lat":34.07139685053925,"lng":-118.40127445737313,"venue":{"id":"42893400f964a52068231fe3","name":"La Scala","url":"https:\/\/foursquare.com\/v\/la-scala\/42893400f964a52068231fe3"}},{"id":"5ad8f65565cdf81c113842b5","startTime":1524168276,"endTime":1524172905,"venueId":"42893400f964a52068231fe3","lat":34.07139685053925,"lng":-118.40127445737313,"venue":{"id":"42893400f964a52068231fe3","name":"La Scala","url":"https:\/\/foursquare.com\/v\/la-scala\/42893400f964a52068231fe3"}},{"id":"5ad7a5ff6a59503b3af552c5","startTime":1524082090,"endTime":1524103286,"venueId":"4b7b1602f964a5209d502fe3","lat":34.06951188100253,"lng":-118.4012806530038,"venue":{"id":"4b7b1602f964a5209d502fe3","name":"Cristophe Salon","url":"https:\/\/foursquare.com\/v\/cristophe-salon\/4b7b1602f964a5209d502fe3"}},{"id":"5ad7a5fffe0e2a46876d2dab","startTime":1524082090,"endTime":1524086104,"venueId":"4b7b1602f964a5209d502fe3","lat":34.06951188100253,"lng":-118.4012806530038,"venue":{"id":"4b7b1602f964a5209d502fe3","name":"Cristophe Salon","url":"https:\/\/foursquare.com\/v\/cristophe-salon\/4b7b1602f964a5209d502fe3"}},{"id":"5ad77118b399f7771b7fbd66","startTime":1524068631,"endTime":1524081586,"venueId":"4c3fdc1be26920a16d295ce7","lat":34.07390217363896,"lng":-118.40081250337435,"venue":{"id":"4c3fdc1be26920a16d295ce7","name":"Beverly Hills Sign","url":"https:\/\/foursquare.com\/v\/beverly-hills-sign\/4c3fdc1be26920a16d295ce7"}},{"id":"5ad77118bcbf7a3b90cca01a","startTime":1524068631,"endTime":1524068812,"venueId":"4c3fdc1be26920a16d295ce7","lat":34.07390217363896,"lng":-118.40081250337435,"venue":{"id":"4c3fdc1be26920a16d295ce7","name":"Beverly Hills Sign","url":"https:\/\/foursquare.com\/v\/beverly-hills-sign\/4c3fdc1be26920a16d295ce7"}},{"id":"5ad6c6850e5da8074ed0b580","startTime":1524024964,"endTime":1524025600,"venueId":"4e55479218a8e7aa2cd80007","lat":34.018347934813036,"lng":-118.28617598548249,"venue":{"id":"4e55479218a8e7aa2cd80007","name":"Expo Park\/USC Metro Station","url":"https:\/\/foursquare.com\/v\/expo-parkusc-metro-station\/4e55479218a8e7aa2cd80007"}},{"id":"5ad6c685805e3f72bebf27a0","startTime":1524024964,"endTime":1524025600,"venueId":"4e55479218a8e7aa2cd80007","lat":34.018347934813036,"lng":-118.28617598548249,"venue":{"id":"4e55479218a8e7aa2cd80007","name":"Expo Park\/USC Metro Station","url":"https:\/\/foursquare.com\/v\/expo-parkusc-metro-station\/4e55479218a8e7aa2cd80007"}},{"id":"5ad68f51e1f22856ac733adb","startTime":1524010802,"endTime":1524024659,"venueId":"579ec9bf498e2f4296389fb6","lat":34.01886514419514,"lng":-118.2826992588293,"venue":{"id":"579ec9bf498e2f4296389fb6","name":"Fertitta Hall (JFF)","url":"https:\/\/foursquare.com\/v\/fertitta-hall-jff\/579ec9bf498e2f4296389fb6"}},{"id":"5ad68f510d0877761e1c066d","startTime":1524010802,"endTime":1524024659,"venueId":"579ec9bf498e2f4296389fb6","lat":34.01886514419514,"lng":-118.2826992588293,"venue":{"id":"579ec9bf498e2f4296389fb6","name":"Fertitta Hall (JFF)","url":"https:\/\/foursquare.com\/v\/fertitta-hall-jff\/579ec9bf498e2f4296389fb6"}},{"id":"5ad679571f8ed679469d7fe6","startTime":1524005206,"endTime":1524010006,"venueId":"5a2737f7dee7703925f577dc","lat":34.025271279784896,"lng":-118.28519984009614,"venue":{"id":"5a2737f7dee7703925f577dc","name":"Cafe Dulce","url":"https:\/\/foursquare.com\/v\/cafe-dulce\/5a2737f7dee7703925f577dc"}},{"id":"5ad679571c675b3297917109","startTime":1524005206,"endTime":1524010006,"venueId":"5a2737f7dee7703925f577dc","lat":34.025271279784896,"lng":-118.28519984009614,"venue":{"id":"5a2737f7dee7703925f577dc","name":"Cafe Dulce","url":"https:\/\/foursquare.com\/v\/cafe-dulce\/5a2737f7dee7703925f577dc"}},{"id":"5ad676fba22db7728f05c734","startTime":1524004602,"endTime":1524004771,"venueId":"51311000e4b0dc20034f313e","lat":34.02034195815614,"lng":-118.28596487806924,"venue":{"id":"51311000e4b0dc20034f313e","name":"USC Credit Union","url":"https:\/\/foursquare.com\/v\/usc-credit-union\/51311000e4b0dc20034f313e"}},